Comune;Provincia;Denominazione struttura;Categoria;Classificazione;Id struttura;Indirizzo;CAP;Sigla provincia;Frazione;Localita;Posta elettronica;Telefono;FAX;Indirizzo internet;Camere;Suite;Letti;Bagni;Prima colazione;In abitato;Sul lago;Vicino eliporto;Vicino aereoporto;Zona centrale;Vicino impianto risalita;Zona periferica;Zona stazione FS;Attrezzature;Carte di pagamento accettate;Lingue;Attrezzature sportive;Attrezzature congressi;Longitudine;Latitudine
ANGERA;VARESE;ALBERGO PAVONE;Alberghiere;Alberghi 3 stelle;197290732;VIA BORROMEO 10;21021;VA;;;hotelpavone@hotelpavone.it;0331.930224;0331.960080;www.hotelpavone.it;14;0;22;14;No;No;Si;No;No;No;No;No;No;Ascensore,Ristorante,Bar,Sala televisione separata,Accettazione animali domestici,Accesso a mezzi pubblici,Custodia valori in cassaforte,Custodia valori in cassette sicurezza,Aria condizionata centralizzata,Access. diversamente abili parziale;American express,Visa,Master Card,Diners,Bancomat,Eurocard;Inglese,Francese,Tedesco;;;8.57443013;45.77244225
ANGERA;VARESE;B&B VILLA NAPOLEONE;Alloggi privati in affitto;Bed & Breakfast;356408843;VIA MILANO 21;21021;VA;;;;;;;1;0;4;1;No;No;No;No;Si;No;No;Si;Si;Access. diversamente abili totale,Accesso a vetture private,Accettazione animali domestici,Aria condizionata,Parco o giardino,Posto auto;;Inglese;;;8.59402339;45.7708119
ANGERA;VARESE;CAMPEGGIO CITTA' DI ANGERA;Complementari;Campeggi e aree attrezzate per camper e roulotte 4 stelle;133532643;VIA BRUSCHERA 99;21021;VA;;;info@vergasrl.com;0331.930736;0331.960367;www.campingcittadiangera.it;535;0;1610;356;No;No;Si;No;No;No;No;No;No;Ristorante,Bar,Sala televisione separata,Accettazione animali domestici,Parcheggio custodito,Lavaggio e stiratura biancheria,Spiaggia privata,Ormeggio,Access. diversamente abili totale,Rimessaggio caravan,Rifornimento benzina immediate vicinanze,Self service o Tavola calda,Spaccio alimentari,Parcheggio non custodito,Uso cellette frigorifere,Rifornimento gas liquido,Telefono per uso comune,Piazzole prevalentemente a prato,Area attrezzata gioco bimbi,Locale di ritrovo,Estintori,Pista da ballo,Bigliardo,Lavapiedi,Camper service;Visa,Master Card,Maestro,CartaSi;Inglese,Francese,Spagnolo,Tedesco,Olandese;Piscina scoperta,Campo attrezzato per pallavolo, beach volley, pallacanestro, calcetto,Campo da bocce,Campo da tennis,attività sportive varie,Tennis da tavolo;;8.58374224;45.76118972
ANGERA;VARESE;CASCINA ARMONIA;Alloggi privati in affitto;Bed & Breakfast;355169173;VIA MILANO 84;21021;VA;;;;;;www.cascinaarmonia.it;2;0;7;2;No;No;No;No;Si;No;No;Si;Si;Access. diversamente abili parziale,Accesso a vetture private,Accettazione animali domestici,Parco o giardino,Posto auto;;Inglese;;;8.59661718;45.76486716
ANGERA;VARESE;HOTEL DEI TIGLI;Alberghiere;Alberghi 3 stelle;197290730;VIA PALETTA 20;21021;VA;;;info@hoteldeitigli.com;0331.930836;0331.960333;www.hoteldeitigli.com;28;0;55;29;Si;No;Si;No;No;No;No;No;No;Ascensore,Bar,Sala lettura separata,Accettazione animali domestici,Accettazione gruppi,Accesso a mezzi pubblici,Accesso a vetture private,Autorimessa,Trasporto clienti stazione,Lavaggio e stiratura biancheria,Servizi baby sitting,Custodia valori in cassaforte,Custodia valori in cassette sicurezza,Aria condizionata centralizzata,Aria condizionata non centralizzata,Estintori,WI-FI in aree comuni,Access. diversamente abili parziale,SKY,Fitness/centro salute;Tutte;Inglese,Francese,Spagnolo,Tedesco;;;8.57393191;45.77165964
ANGERA;VARESE;HOTEL PONTI&PONTI;Alberghiere;Alberghi 3 stelle;390724028;PIAZZA GARIBALDI 21;21021;VA;;;info@hotelpontieponti.it;0331.932016;0331.932016;www.hotelpontieponti.it;18;0;31;18;No;No;No;No;No;No;No;No;No;Ascensore,Sala lettura separata,Accettazione animali domestici,Servizio congressi,Accesso a mezzi pubblici,Accesso a vetture private,Lavaggio e stiratura biancheria,Custodia valori in cassette sicurezza,Aria condizionata centralizzata,Aria condizionata non centralizzata,Access. diversamente abili totale,Riscaldamento,Fitness/centro salute;American express,Visa,Master Card,Maestro,Eurocard,CartaSi;Inglese,Francese,Spagnolo;;Numero sale congressi 1,Congressi capacita' Min 2,Congressi capacita' Max 20;8.57524413;45.77193521
ANGERA;VARESE;HOTEL RISTORANTE LIDO;Alberghiere;Alberghi 3 stelle;197290731;VIALE LIBERTA' 11;21021;VA;;;lido@hotellido.it;0331.930232;0331.932044;www.hotellido.it;17;0;33;18;Si;No;Si;No;No;No;No;No;No;Ascensore,Ristorante,Ristorante vegetariano,Bar,Parco o giardino,Servizio congressi,Accesso a vetture private,Parcheggio custodito,Lavaggio e stiratura biancheria,Custodia valori in cassaforte,Access. diversamente abili totale,Estintori,Access. diversamente abili parziale;Diners,Tutte,CartaSi,AmexCo;Inglese,Francese,Tedesco;;;8.5646898;45.77820352
ANGERA;VARESE;LOCANDA LA CASETTA;Complementari;Locande;197290615;PIAZZA MATTEOTTI 8;21021;VA;;;info@locandalacasetta.it;0331.956951;0331.955028;www.locandalacasetta.it;5;0;10;5;No;No;No;No;No;No;No;No;No;Access. diversamente abili parziale,Accesso a mezzi pubblici,Accesso a vetture private,Accettazione animali domestici,Lavaggio e stiratura biancheria,Parco o giardino,Somministrazione alimenti,Somministrazione bevande,Somministrazione alcolici;;Inglese,Francese,Spagnolo;;;8.62875321;45.78193932
ARCISATE;VARESE;AGRITURISMO CASCINA MARIANIN;Complementari;Alloggi Agrituristici;197290733;VIA CANTELLO;21051;VA;;CATTAFAME;;;;www.cascinamarianin.it;5;0;10;8;No;No;No;No;No;No;No;No;No;Access. diversamente abili parziale,Accesso a vetture private,Accettazione animali domestici,Estintori,Telefono per uso comune;Tutte;Inglese;;;8.87092067;45.85489196
AZZATE;VARESE;BAR ALBINI;Complementari;Alloggi iscritti REC gestiti in forma imprenditoriale;302905530;VIA PIAVE 43;21022;VA;;;;;;;4;0;8;4;No;No;No;No;No;No;No;No;No;Access. diversamente abili parziale,Accesso a vetture private,Somministrazione alimenti,Somministrazione bevande,Somministrazione alcolici;;;;;8.79470179;45.77682713
AZZATE;VARESE;LOCANDA DEI MAI INTEES;Alberghiere;Alberghi 4 stelle;197290735;VIA MONTE GRAPPA 22;21022;VA;;;info@mai-intees.com;0332.457223;0332.459339;www.mai-intees.com;12;6;30;12;Si;No;Si;No;No;No;No;No;No;Ascensore,Ristorante,Sala televisione separata,Parco o giardino,Accettazione animali domestici,Servizio congressi,Accesso a vetture private,Parcheggio custodito,Lavaggio e stiratura biancheria,Pulizia calzature,Custodia valori in cassaforte,Aria condizionata centralizzata,Estintori,Access. diversamente abili parziale;Tutte;Inglese,Francese,Spagnolo,Tedesco;;Numero sale congressi 1,Congressi capacita' Max 60;8.79413727;45.78130505
BARASSO;VARESE;RESIDENZA IF;Alloggi privati in affitto;Bed & Breakfast;382424791;VIA MATTEOTTI 58;21020;VA;;;;;;www.residenzaif.it;3;0;6;2;No;No;No;No;No;No;No;No;No;Accesso a vetture private,Autorimessa,Parco o giardino;Tutte;Inglese,Francese;;;8.7579474;45.83663048
BESNATE;VARESE;MIRANDOLINA;Alloggi privati in affitto;Bed & Breakfast;322468257;VIA PACINOTTI 4;21010;VA;;;;;;www.mirandolinabesnate.it;2;0;6;2;No;No;No;No;Si;No;No;Si;Si;Access. diversamente abili parziale,Accesso a mezzi pubblici,Accesso a vetture private,Autorimessa,Parco o giardino,Posto auto;;Inglese;;;8.76637618;45.69626734
BESOZZO;VARESE;B&B IL PICCHIO MAGGIORE;Alloggi privati in affitto;Bed & Breakfast;382424426;VIA VOLTA 20;21023;VA;;;;;;;3;0;6;1;No;No;No;No;No;No;No;Si;Si;Accettazione animali domestici,Aria condizionata,Posto auto;;Inglese,Francese;;;8.66024273;45.84771342
BESOZZO;VARESE;B&B IL SASS;Alloggi privati in affitto;Bed & Breakfast;323844284;VIA MASSERANO 354/C;21023;VA;;;;;;;3;0;6;2;No;No;No;No;No;No;No;Si;Si;Accesso a vetture private,Accettazione animali domestici,Autorimessa,Parco o giardino,Posto auto;;Inglese,Francese,Spagnolo,Tedesco,Svedese;;;8.65099856;45.84330742
BESOZZO;VARESE;IL BEL GIARDINETTO;Alloggi privati in affitto;Bed & Breakfast;335429865;VIA QUAGLIA 8;21023;VA;;;;;;ilbelgiardinetto.net;2;0;6;2;No;No;No;No;No;No;No;No;No;Access. diversamente abili parziale,Accesso a vetture private,Parco o giardino,Posto auto;;Inglese,Francese,Tedesco;;;8.6562613;45.84294003
BESOZZO;VARESE;IL POZZO E LE ROSE;Alloggi privati in affitto;Bed & Breakfast;354377542;VIA BEATO NICONE 24;21023;VA;;;;;;www.ilpozzoelerose.it;2;0;3;2;No;No;No;No;No;No;No;No;No;Access. diversamente abili parziale,Accesso a mezzi pubblici,Parco o giardino,Posto auto;;Inglese,Francese;;;8.6664953;45.8457972
BESOZZO;VARESE;LA QUERCIA;Alloggi privati in affitto;Bed & Breakfast;302379974;VIA LAGO 49;21023;VA;;BESOZZO;;;;;3;0;6;2;No;No;No;No;Si;No;No;Si;Si;Access. diversamente abili parziale,Posto auto;;Inglese;;;8.64811339;45.84064567
BESOZZO;VARESE;OSTELLO DI BESOZZO;Complementari;Ostelli per la gioventù;353175595;VIA PINIROLI 17;21013;VA;;;jonny312rr@yahoo.it;388.4589002;;www.ostellodibesozzo.it;3;0;13;5;No;;;;;;;;;Access. diversamente abili totale,Access. diversamente abili parziale,Accesso a vetture private,Accettazione gruppi,Cucina di uso comune,Parco o giardino,Sala televisione separata;;Inglese,Spagnolo;;;8.6664953;45.8457972
BIANDRONNO;VARESE;B&B VILLA CHIARA;Alloggi privati in affitto;Bed & Breakfast;388753127;VIA RIMEMBRANZE 24;21024;VA;;BIANDRONNO;;;;www.bnbvillachiara.com;2;0;5;0;No;No;No;No;No;No;No;No;Si;Accettazione animali domestici,Aria condizionata,Parco o giardino,Sala televisione separata;CartaSi;Inglese,Francese,Spagnolo,Tedesco;;;8.70860067;45.8296563
BODIO LOMNAGO;VARESE;EQUIRELAIS SRL;Alberghiere;Alberghi 3 stelle;383044799;VIA SCEREE' 66;21020;VA;;;info@equirelais.it;0332.948556;;www.equirelais.it;7;0;14;14;Si;No;Si;No;No;No;No;No;No;Ascensore,Bar,Sala lettura separata,Parco o giardino,Accettazione animali domestici,Accesso a vetture private,Custodia valori in cassaforte,Custodia valori in cassette sicurezza,Access. diversamente abili totale,Riscaldamento,Parcheggio non custodito,Internet point,Servizio in camera,WI-FI in aree comuni,Televisione satellitare;Tutte;Inglese,Francese,Tedesco,Cinese;;;8.74680289;45.79811318
BODIO LOMNAGO;VARESE;VILLA BARONI;Alberghiere;Alberghi 3 stelle;302070689;VIA ACQUADRO 12;21020;VA;;;info@villabaroni.it;0332.947383;0332.969469;www.villabaroni.it;7;0;13;7;Si;Si;No;No;No;No;No;No;No;Ascensore,Ristorante,Ristorante vegetariano,Bar,Parco o giardino,Accettazione animali domestici,Accettazione gruppi,Accesso a vetture private,Autorimessa,Trasporto clienti stazione,Lavaggio e stiratura biancheria,Custodia valori in cassaforte,Custodia valori in cassette sicurezza,Aria condizionata centralizzata,Aria condizionata non centralizzata,Access. diversamente abili totale,WI-FI in aree comuni,Access. diversamente abili parziale;American express,Visa,Master Card,Citibank,Bank Americard,Tutte,Maestro,Bancomat,Eurocard,JTB,JBC,JCB,AmexCo,Masterchange,BAC,Key Client,JCV,EDC,Carte Blanche,Top Card,MobilMat,Visa Electron;Inglese,Francese;;Numero sale congressi 3,Congressi capacita' Min 13,Congressi capacita' Max 50;8.75443395;45.79287802
BREBBIA;VARESE;B&B DEI LAGHI;Alloggi privati in affitto;Bed & Breakfast;308972002;VIA IV NOVEMBRE 12;21020;VA;;Ronch??;;;;"<p><a href=""https://deilaghi.wordpress.com"" target=""_blank""> https://deilaghi.wordpress.com";4;0;12;4;No;No;No;No;No;No;No;No;Si;Access. diversamente abili parziale,Accesso a mezzi pubblici,Accesso a vetture private,Accettazione animali domestici,Accettazione gruppi,Aria condizionata,Parco o giardino,Posto auto;;Francese,Spagnolo;;;8.65901436;45.83828507
BREBBIA;VARESE;SPORT & BENESSERE;Complementari;Case ed appartamenti per vacanze gestiti in forma imprenditoriale;197290723;VIA GARIBALDI 21/G;21020;VA;;;;;;www.sport-benessere.it;14;0;28;14;No;No;No;No;No;No;No;No;No;Access. diversamente abili parziale;;;;;8.6525132;45.82391735
BRENTA;VARESE;B&B LA CORTE DI BRENTA;Alloggi privati in affitto;Bed & Breakfast;356843240;VIA VICOLO SUPERIORE 4;21030;VA;;;;;;;2;0;7;2;No;No;No;No;No;No;No;No;No;Access. diversamente abili parziale,Accettazione animali domestici,Parco o giardino,Posto auto,Sala televisione separata;;Inglese,Spagnolo;;;8.68536739;45.8942865
BREZZO DI BEDERO;VARESE;AGRITURISMO LA BETULLA;Complementari;Alloggi Agrituristici;197290741;VIA BELMONTE 50;21010;VA;;BELMONTE;;;;www.agriturismobetulla.it;16;0;32;20;Si;No;No;No;No;No;No;No;No;Access. diversamente abili totale,Accesso a mezzi pubblici,Accesso a vetture private,Accettazione animali domestici,Estintori,Sala lettura separata,Sala televisione separata,Telefono per uso comune;Visa,Master Card,Bancomat;Inglese,Francese,Tedesco;;;8.70879083;45.9714778
BRINZIO;VARESE;LOCANDA DEL BRINSC;Alberghiere;Alberghi 2 stelle;197290608;VIA MARCONI 5;21030;VA;;;picciocchicarla@gmail.com;0332 435257;;www.locandadelbrinsc.com;7;0;12;10;No;Si;No;No;No;No;No;No;No;Ristorante,Ristorante vegetariano,Bar,Sala lettura separata,Sala televisione separata,Parco o giardino,Accettazione animali domestici,Accettazione gruppi,Accesso a mezzi pubblici,Accesso a vetture private,Parcheggio custodito,Trasporto clienti stazione,Lavaggio e stiratura biancheria,Custodia valori in cassaforte,Custodia valori in cassette sicurezza,Access. diversamente abili totale,Riscaldamento,Parcheggio non custodito,Servizio in camera,Pompa rifornimento carburante,WI-FI in aree comuni,Access. diversamente abili parziale;Tutte;Inglese,Francese;Campo da calcetto,Sci da fondo;;8.78828808;45.88944127
BRISSAGO-VALTRAVAGLIA;VARESE;LA CASA DEL BORGO;Alloggi privati in affitto;Bed & Breakfast;382523397;VIA BASSO 10/D;21030;VA;;;;;;;2;0;4;2;No;No;No;No;No;No;No;Si;No;Parco o giardino,Posto auto;;Inglese,Francese,Spagnolo,Tedesco;;;8.74343913;45.94825679
BRISSAGO-VALTRAVAGLIA;VARESE;LA PINETA;Alloggi privati in affitto;Bed & Breakfast;324441731;VIA BASSO 10/B;21030;VA;;;;;;www.bedandbreakfastlapineta.it;2;0;4;1;No;No;No;No;No;No;No;Si;No;Access. diversamente abili totale,Accesso a vetture private,Accettazione animali domestici,Aria condizionata,Parco o giardino,Posto auto;;Inglese,Francese;;;8.74343913;45.94825679
BRISSAGO-VALTRAVAGLIA;VARESE;LE CAMELIE;Alloggi privati in affitto;Bed & Breakfast;197290621;VIA XXV APRILE 2;21030;VA;;;;;;www.bblecamelie.it;2;0;4;2;No;No;No;No;No;Si;No;No;No;Access. diversamente abili parziale,Accesso a mezzi pubblici,Accettazione animali domestici,Parco o giardino;Visa,Master Card;Inglese,Francese;;;8.74696523;45.94786368
BRUNELLO;VARESE;ALLA CAMELIA;Alloggi privati in affitto;Bed & Breakfast;197290722;VIA SANTA MARIA 4/B;21022;VA;;;;;;www.allacamelia.it;2;0;3;2;No;No;No;No;No;No;No;Si;No;Accettazione animali domestici,Autorimessa,Parco o giardino,Posto auto,Sala televisione separata;;Inglese,Francese,Spagnolo;;;8.79227103;45.766605
BRUNELLO;VARESE;HOTEL VERBANO 2000;Alberghiere;Alberghi 3 stelle;197290742;VIA GALLARATE 2;21022;VA;;;info@hotelverbano2000.it;0332.870056;0332.870314;www.hotelverbano2000.it;79;0;126;80;Si;Si;No;No;No;No;No;No;No;Ascensore,Bar,Sala lettura separata,Sala televisione separata,Parco o giardino,Accettazione animali domestici,Accettazione gruppi,Accesso a mezzi pubblici,Accesso a vetture private,Parcheggio custodito,Autorimessa,Trasporto clienti stazione,Lavaggio e stiratura biancheria,Custodia valori in cassette sicurezza,Aria condizionata non centralizzata,Access. diversamente abili totale,Estintori,WI-FI in aree comuni;American express,Visa,Diners,Bank Americard,Maestro,Bancomat;Inglese,Francese;;Numero sale congressi 1,Congressi capacita' Min 2,Congressi capacita' Max 25;8.81264355;45.76613314
BRUSIMPIANO;VARESE;CAROLINE;Alberghiere;Alberghi 4 stelle;197290743;VIA MOTTA 4;21050;VA;;;info@hotelcaroline.com;0332.934322;0332.933600;www.hotelcaroline.com;24;0;46;24;No;Si;Si;No;No;No;No;No;No;Ascensore,Ristorante,Bar,Sala lettura separata,Sala televisione separata,Parco o giardino,Accettazione animali domestici,Servizio congressi,Accettazione gruppi,Accesso a mezzi pubblici,Accesso a vetture private,Parcheggio custodito,Trasporto clienti stazione,Lavaggio e stiratura biancheria,Custodia valori in cassette sicurezza,Aria condizionata centralizzata,Access. diversamente abili parziale;Tutte;Inglese,Francese,Spagnolo,Tedesco,Norvegese;;Numero sale congressi 1,Congressi capacita' Max 100;8.88965055;45.94506858
BRUSIMPIANO;VARESE;CAROLINE-DEPENDANCE;Alberghiere;Alberghi 3 stelle;197290607;VIA MOTTA, 4;21050;VA;;;info@hotelcaroline.com;0332.934322;0332.933600;www.hotelcaroline.com;4;0;8;4;No;No;Si;No;No;No;No;No;No;Ascensore,Ristorante,Ristorante vegetariano,Sala lettura separata,Sala televisione separata,Parco o giardino,Accettazione animali domestici,Servizio congressi,Accettazione gruppi,Accesso a mezzi pubblici,Accesso a vetture private,Parcheggio custodito,Autorimessa,Trasporto clienti stazione,Lavaggio e stiratura biancheria,Pulizia calzature,Custodia valori in cassaforte,Custodia valori in cassette sicurezza,Discoteca,Aria condizionata centralizzata,Aria condizionata non centralizzata,Access. diversamente abili parziale;Tutte;Inglese,Francese,Spagnolo,Tedesco,Norvegese;;;8.88965055;45.94506858
BRUSIMPIANO;VARESE;TRATTORIA AL GROTTINO CON ALLOGGIO;Complementari;Alloggi iscritti REC gestiti in forma imprenditoriale;197290715;VIA FERRARI 25;21050;VA;ARDENA;;;;;www.algrottino.it;4;0;13;4;Si;No;No;No;No;No;No;No;No;Access. diversamente abili parziale,Accesso a vetture private,Accettazione animali domestici,Autorimessa,Parcheggio privato,Parco o giardino,Sala televisione separata,Somministrazione alimenti,Somministrazione bevande,Somministrazione alcolici;;Inglese,Francese,Tedesco;;;8.8831598;45.94738593
BUSTO ARSIZIO;VARESE;ADUEPASSI;Alloggi privati in affitto;Bed & Breakfast;389313402;CORSO ITALIA 6;21052;VA;;San Giuseppe;;;;aduepassibustoarsizio.altervista.org;3;0;6;3;No;No;No;No;No;No;No;No;No;Access. diversamente abili totale,Accesso a mezzi pubblici,Accettazione animali domestici,Accettazione gruppi,Aria condizionata,Bar,Posto auto;;Inglese;;;8.84910131;45.62264095
BUSTO ARSIZIO;VARESE;ALBERGO MAZZINI;Alberghiere;Alberghi 2 stelle;197290748;PIAZZA MANZONI 1;21052;VA;;;direzione@albergomazzini.it;0331.631715;0331.635163;;16;0;24;18;Si;Si;No;No;No;No;No;No;No;Ristorante,Bar,Accesso a mezzi pubblici,Accesso a vetture private,Parcheggio custodito,Autorimessa,Custodia valori in cassaforte,Aria condizionata centralizzata,Aria condizionata non centralizzata,Access. diversamente abili parziale;Tutte;Inglese,Francese,Tedesco;;;8.84617304;45.61072053
BUSTO ARSIZIO;VARESE;ANTICA CORTE - ROOM & BREAKFAST;Complementari;Foresterie lombarde;383770849;VICOLO CUSTODI 3A;21052;VA;;;info@anticacortebusto.it;333.2078195;;www.anticacortebusto.it;6;0;11;6;Si;No;No;No;No;No;No;No;No;Cucina di uso comune;;Inglese,Francese,Spagnolo,Tedesco;;;8.84973812;45.61216429
BUSTO ARSIZIO;VARESE;ANTICA TRATTORIA DELLA PESA;Complementari;Alloggi iscritti REC gestiti in forma imprenditoriale;197290633;PIAZZA COLOMBO 1;21052;VA;;;;;;;3;0;6;3;No;No;No;No;No;No;No;No;No;Access. diversamente abili parziale,Lavaggio e stiratura biancheria,Parco o giardino,Somministrazione bevande,Somministrazione alcolici;;;;;8.8497281;45.61416764
BUSTO ARSIZIO;VARESE;B&B GIET;Alloggi privati in affitto;Bed & Breakfast;197290750;VIA TAORMINA 26;21052;VA;;;;;;www.bebgiet.it;3;0;5;3;No;No;No;No;No;No;No;No;No;Access. diversamente abili parziale,Accettazione animali domestici,Aria condizionata,Parco o giardino,Posto auto;Visa,Master Card,Bancomat;Inglese,Francese;;;8.83726087;45.60650824
BUSTO ARSIZIO;VARESE;B&B IL CORTILE DI LAURA;Alloggi privati in affitto;Bed & Breakfast;356980973;VIA VERONA 1;21052;VA;;;;;;;1;0;4;2;No;No;No;No;Si;No;No;No;No;Access. diversamente abili parziale,Accesso a mezzi pubblici,Aria condizionata;;;;;8.87231871;45.60740691
BUSTO ARSIZIO;VARESE;B&B LE ROSE;Alloggi privati in affitto;Bed & Breakfast;197290691;VIA FERRARA 12;21052;VA;;;;;;www.bblerose.com;2;0;5;2;No;No;No;No;Si;Si;No;No;No;Access. diversamente abili parziale,Accesso a mezzi pubblici,Accesso a vetture private,Accettazione animali domestici,Posto auto;;Inglese,Francese;;;8.84158301;45.61628694
BUSTO ARSIZIO;VARESE;B&B SOUTHITALY;Alloggi privati in affitto;Bed & Breakfast;383001245;VIA FRATELLI DI DIO 29;21052;VA;BORSANO;;;;;www.southitalybeb.it;3;0;7;2;No;No;No;No;Si;No;No;Si;Si;Accettazione animali domestici,Aria condizionata,Autorimessa,Parco o giardino,Posto auto;Tutte;Inglese;;;8.84522679;45.58694785
BUSTO ARSIZIO;VARESE;CONDOMINIO;Alloggi privati in affitto;Bed & Breakfast;388096892;VIALE DELLA REPUBBLICA 75;21052;VA;;;;;;;2;0;3;2;No;No;No;No;Si;No;No;No;No;Parco o giardino;;Inglese,Francese,Spagnolo;;;8.82903466;45.6283485
BUSTO ARSIZIO;VARESE;HOTEL ESPANA;Alberghiere;Alberghi 3 stelle;197290747;VIALE BOCCACCIO 174;21052;VA;;;info@hotelespana.it;0331.341123;0331.351353;www.hotelespana.it;10;0;16;10;No;Si;No;No;No;No;No;No;No;Ristorante,Bar,Parco o giardino,Accesso a vetture private,Parcheggio custodito,Custodia valori in cassaforte,Aria condizionata centralizzata,Estintori,Access. diversamente abili parziale;Tutte;Inglese,Francese,Spagnolo;;;8.857893;45.5813341
BUSTO ARSIZIO;VARESE;HOTEL HORTENSIA;Alberghiere;Alberghi 3 stelle;197290749;VIA ADUA 15;21052;VA;SAN GIUSEPPE;VARESE;info@hotelhortensia.it;0331.626299;0331.625860;www.hotelhortensia.it;21;0;26;22;Si;Si;No;No;No;Si;No;No;Si;Ascensore,Bar,Sala lettura separata,Parco o giardino,Accettazione animali domestici,Accettazione gruppi,Accesso a vetture private,Parcheggio custodito,Autorimessa,Trasporto clienti stazione,Lavaggio e stiratura biancheria,Custodia valori in cassaforte,Custodia valori in cassette sicurezza,Aria condizionata centralizzata,Aria condizionata non centralizzata,Access. diversamente abili totale,Estintori;Tutte;Inglese,Francese,Spagnolo,Tedesco;Fitness/centro salute;;8.84832117;45.61883907
BUSTO ARSIZIO;VARESE;HOTEL PINETA;Alberghiere;Alberghi 4 stelle;197290745;VIA SEMPIONE 150;21052;VA;;;info@hotelpineta.com;0331.381220;0331.365069;www.hotelpineta.com;55;0;110;55;Si;Si;No;No;Si;No;No;No;No;Ascensore,Ristorante,Bar,Parco o giardino,Accettazione animali domestici,Servizio congressi,Accettazione gruppi,Accesso a mezzi pubblici,Accesso a vetture private,Trasporto clienti stazione,Lavaggio e stiratura biancheria,Custodia valori in cassette sicurezza,Aria condizionata centralizzata,Aria condizionata non centralizzata,Access. diversamente abili totale,Estintori;Visa,Master Card,Diners,Bancomat,Eurocard,CartaSi,AmexCo;Inglese,Francese,Tedesco;;Numero sale congressi 1,Congressi capacita' Min 2,Congressi capacita' Max 100;8.84213815;45.62825945
BUSTO ARSIZIO;VARESE;IL FIORDALISO;Complementari;Alloggi iscritti REC gestiti in forma imprenditoriale;197290688;VIA FIORDALISO 11;21052;VA;;;;;;www.ilfiordaliso.it;6;0;11;6;No;No;No;No;No;No;No;No;No;Access. diversamente abili parziale,Accettazione animali domestici,Cucina di uso comune;;Inglese;;;8.8656431;45.62314032
BUSTO ARSIZIO;VARESE;RESIDENCE MANVILLA;Alberghiere;Residenze turistico alberghiere 2 stelle;197290746;VIA MILAZZO 5;21052;VA;;;soledorosz@hotmail.it;0331.620842;;;11;0;21;11;No;No;No;No;No;Si;No;No;No;Access. diversamente abili parziale,Accesso a mezzi pubblici,Accesso a vetture private,Bar,Estintori,Lavaggio e stiratura biancheria,Parcheggio custodito,Parcheggio non custodito,Parco o giardino,Ristorante;;;;;8.85528286;45.60509922
BUSTO ARSIZIO;VARESE;THE GARDEN HOUSE;Alloggi privati in affitto;Bed & Breakfast;355907762;VIA CASSANO MAGNAGO 114/2;21052;VA;;;;;;;1;0;3;1;No;No;No;No;Si;No;No;No;No;Access. diversamente abili parziale,Accesso a vetture private,Parco o giardino;;Inglese,Francese;;;8.84561059;45.63957699
CADEGLIANO-VICONAGO;VARESE;ALBERGO RISTORANTE STAMPA;Alberghiere;Alberghi 2 stelle;197290751;VIA STAMPA 3;21031;VA;;Viconago;info@albergostampa.com;0332.591152;0332.591152;www.albergostampa.com;13;0;25;13;Si;Si;No;No;No;No;No;No;No;Ristorante,Bar,Sala televisione separata,Parco o giardino,Accettazione animali domestici,Accettazione gruppi,Accesso a mezzi pubblici,Parcheggio custodito,Custodia valori in cassaforte,Estintori,Access. diversamente abili parziale;Visa,Master Card,Maestro,Eurocard;Inglese,Francese;Piscina scoperta;;8.83914888;45.96711013
CADREZZATE;VARESE;HOTEL LA LOCANDA;Alberghiere;Alberghi 3 stelle;308534091;PIAZZA GARIBALDI 61;21020;VA;;;info@hotellocanda.it;0331.910003;0331.910844;www.hotellocanda.it;24;0;46;26;No;No;Si;No;Si;Si;No;No;Si;Ascensore,Ristorante,Bar,Sala lettura separata,Sala televisione separata,Accettazione animali domestici,Accettazione gruppi,Accesso a mezzi pubblici,Accesso a vetture private,Trasporto clienti stazione,Lavaggio e stiratura biancheria,Servizi baby sitting,Custodia valori in cassaforte,Custodia valori in cassette sicurezza,Sauna privata,Aria condizionata centralizzata,Aria condizionata non centralizzata,Access. diversamente abili totale,Estintori,WI-FI in aree comuni;American express,Visa,Master Card,Diners,Maestro;Inglese,Francese,Spagnolo,Tedesco,Rumeno;Equitazione;;8.64362913;45.7973231
CADREZZATE;VARESE;RESIDENCE MILLENNIUM;Alberghiere;Residenze turistico alberghiere 3 stelle;302025721;VIA FERMI 479;21020;VA;;;mm.squizzato@tiscali.it;0331.953101;0331.953101;www.millenniumresidence.it;26;0;52;26;No;Si;Si;No;No;No;No;Si;No;Access. diversamente abili totale,Accesso a mezzi pubblici,Accesso a vetture private,Accettazione animali domestici,Accettazione gruppi,Aria condizionata centralizzata,Ascensore,Autorimessa,Bar,Custodia valori in cassaforte,Custodia valori in cassette sicurezza,Estintori,Lavaggio e stiratura biancheria,Parcheggio non custodito,Parco o giardino,Riscaldamento,Spiaggia privata;American express,Visa,Master Card,CartaSi;Inglese,Francese,Tedesco,Olandese,Rumeno;;;8.63074922;45.80139629
CAIRATE;VARESE;B&B LA CANONICA;Alloggi privati in affitto;Bed & Breakfast;335871355;VIA JESI 3;21050;VA;;;;;;www.beb-lacanonica.com;1;0;2;1;No;No;No;No;Si;Si;No;No;No;Access. diversamente abili parziale,Accesso a mezzi pubblici,Parco o giardino,Posto auto,Sala televisione separata;;Inglese,Francese;;;8.87321302;45.69062626
CAIRATE;VARESE;LA LOCANDA AL PONTE;Complementari;Locande;325850197;VIA PER ABBIATE 8;21050;VA;;;lalocandaalponte@virgilio.it;0331.360053;0331.810996;www.lacucinarte.it;6;0;12;6;No;No;No;No;No;No;No;No;No;Access. diversamente abili totale,Accesso a mezzi pubblici,Accesso a vetture private,Accettazione animali domestici,Ascensore,Lavaggio e stiratura biancheria,Parco o giardino,Somministrazione alimenti,Somministrazione bevande,Somministrazione alcolici;;Inglese,Indiano;;;8.88637055;45.6883028
CANTELLO;VARESE;ALBERGO RISTORANTE MADONNINA;Alberghiere;Alberghi 3 stelle;197290755;LARGO LANFRANCO DA LIGURNO 1;21050;VA;;LIGURNO;info@madonnina.it;0332.417731;0332.418403;www.madonnina.it;26;2;51;26;No;Si;No;No;No;No;No;No;No;Ascensore,Ristorante,Bar,Sala lettura separata,Parco o giardino,Accettazione animali domestici,Servizio congressi,Accettazione gruppi,Accesso a mezzi pubblici,Accesso a vetture private,Parcheggio custodito,Trasporto clienti stazione,Lavaggio e stiratura biancheria,Pulizia calzature,Servizi baby sitting,Custodia valori in cassaforte,Custodia valori in cassette sicurezza,Aria condizionata non centralizzata,Access. diversamente abili totale,Estintori,Piscina scoperta;American express,Visa,Master Card,Diners,Maestro,Bancomat,CartaSi,AmexCo;Inglese,Francese,Spagnolo,Tedesco;;Numero sale congressi 1,Congressi capacita' Min 2,Congressi capacita' Max 80;8.90158376;45.82425122
CANTELLO;VARESE;HOTEL GONZAGA;Alberghiere;Alberghi 3 stelle;197290756;VIA DEI BIANCOSPINI 2/A;21050;VA;;;barca.lorenzo@libero.it;0332.417012;0332.418012;www.hotelgonzaga.net;23;0;45;23;No;Si;No;No;No;No;No;No;No;Ascensore,Ristorante,Ristorante vegetariano,Bar,Parco o giardino,Accettazione animali domestici,Accettazione gruppi,Accesso a mezzi pubblici,Accesso a vetture private,Autorimessa,Custodia valori in cassaforte,Custodia valori in cassette sicurezza,Aria condizionata centralizzata,Aria condizionata non centralizzata,Access. diversamente abili totale,Estintori;Tutte;Inglese,Francese,Spagnolo;;;8.90921921;45.83441549
CANTELLO;VARESE;IMPERO HOTEL BEAUTY & SPA;Alberghiere;Alberghi 3 stelle;301132712;VIA LUGANO;21050;VA;;CANTELLO;info@imperohotel.it;0332.418006;0332.1800421;www.imperhotel.it;16;0;26;16;No;No;No;No;No;No;No;No;No;Ascensore,Ristorante,Bar,Accettazione animali domestici,Accettazione gruppi,Accesso a mezzi pubblici,Autorimessa,Custodia valori in cassaforte,Aria condizionata non centralizzata,Estintori,Access. diversamente abili parziale,Fitness/centro salute;Visa,Master Card,Diners,Citibank,Bank Americard,Tutte,Maestro,Bancomat,Eurocard,CartaSi,JTB,JBC,JCB,AmexCo,Carta Moneta,Masterchange,BAC,Key Client,JCV,EDC,Carte Blanche,Top Card,MobilMat,Visa Electron;Inglese,Francese;;;8.9098088;45.83725043
CANTELLO;VARESE;RISTORANTE PIZZERIA EDEN S.N.C.;Complementari;Alloggi iscritti REC gestiti in forma imprenditoriale;197290634;VIA ELVEZIA 39;21050;VA;;Gaggiolo;;;;;4;0;12;2;No;No;No;No;No;No;No;No;No;Accesso a mezzi pubblici,Accettazione animali domestici,Somministrazione alimenti,Somministrazione bevande,Somministrazione alcolici;;Inglese,Francese,Tedesco;;;8.91028269;45.83954593
CARDANO AL CAMPO;VARESE;AIR B&B;Alloggi privati in affitto;Bed & Breakfast;300001558;VIA LAZZARETTO 16;21010;VA;;;;;;;1;0;2;1;No;No;No;No;No;No;No;No;No;Access. diversamente abili parziale,Accesso a vetture private,Posto auto,Sala televisione separata;;Inglese;;;8.77110516;45.63840202
CARDANO AL CAMPO;VARESE;B&B DORMOUSE;Alloggi privati in affitto;Bed & Breakfast;356219406;VIA SAN GIUSEPPE 26;21010;VA;;;;;;;2;0;2;2;No;No;No;No;No;No;No;No;No;Access. diversamente abili parziale,Accesso a mezzi pubblici;;Inglese;;;8.77179905;45.64064816
CARDANO AL CAMPO;VARESE;B&B IL CODIROSSO;Alloggi privati in affitto;Bed & Breakfast;197290653;VIA BELLINI 40 L;21100;VA;;;;;;;1;0;2;2;No;No;No;No;No;No;No;No;No;Access. diversamente abili parziale;;Inglese;;;8.76490843;45.64663764
CARDANO AL CAMPO;VARESE;B&B LA LIBELLULA;Alloggi privati in affitto;Bed & Breakfast;197290760;VIA BRUNO FERRAZZI 14;21010;VA;;;;;;;2;0;6;2;No;No;No;No;Si;No;No;Si;No;Access. diversamente abili parziale,Accesso a mezzi pubblici,Accesso a vetture private,Autorimessa,Parco o giardino,Posto auto,Sala televisione separata;;Inglese,Francese;;;8.77940495;45.6488026
CARDANO AL CAMPO;VARESE;B&B MOONROSE;Alloggi privati in affitto;Bed & Breakfast;301244245;VIA FALCONE E BORSELLINO 18;21010;VA;;;;;;www.moonrose.it;3;0;5;4;No;No;No;No;Si;No;No;Si;No;Accesso a mezzi pubblici,Accesso a vetture private,Accettazione animali domestici,Autorimessa,Parco o giardino,Posto auto;;Inglese,Francese,Spagnolo,Tedesco;;;8.7688898;45.6367589
CARDANO AL CAMPO;VARESE;B&B TIZIANO;Alloggi privati in affitto;Bed & Breakfast;197290725;VIA MINCIO 15;21010;VA;;;;;;;2;0;4;2;No;No;No;No;No;Si;No;No;No;Access. diversamente abili parziale,Accesso a mezzi pubblici,Accettazione animali domestici,Aria condizionata,Parco o giardino;;Inglese,Francese;;;8.76604208;45.64108722
CARDANO AL CAMPO;VARESE;B&B VILLA EDEN;Alloggi privati in affitto;Bed & Breakfast;133549120;VIA GIOVANNI XIII 173;21010;VA;;;;;;;2;0;3;3;No;No;No;No;No;No;No;No;No;Access. diversamente abili parziale,Accesso a vetture private,Parco o giardino,Posto auto;;;;;8.75870229;45.65297437
CARDANO AL CAMPO;VARESE;BED AND BREAKFAST D&D;Alloggi privati in affitto;Bed & Breakfast;197290652;VIA ADIGE 100;21010;VA;;;;;;www.bnbdaniaedavide.it;2;0;9;2;No;No;No;No;Si;No;No;Si;No;Access. diversamente abili parziale,Accesso a vetture private,Bar,Parco o giardino,Posto auto,Servizio di pulizia bagno assicurato almeno 1 volta al giorno,Servizio di pulizia e cambio biancheria assicurato almeno 3 volte alla settimana;;Inglese;;;8.76476949;45.63382935
CARDANO AL CAMPO;VARESE;BEST WESTERN HOTEL CAVALIERI DELLA CORONA;Alberghiere;Alberghi 4 stelle;197290757;VIA BAROLDO 12;21010;VA;;;info@cavalieridellacorona.com;0331.730350;0331.730348;www.cavalieridellacorona.com;176;32;354;183;No;No;No;No;No;No;No;No;No;Ascensore,Ristorante,Bar,Parco o giardino,Servizio congressi,Accettazione gruppi,Accesso a mezzi pubblici,Accesso a vetture private,Autorimessa,Trasporto clienti stazione,Lavaggio e stiratura biancheria,Servizi baby sitting,Custodia valori in cassaforte,Aria condizionata centralizzata,Aria condizionata non centralizzata,Access. diversamente abili totale,Estintori,Jacuzzi/Idromassaggio,WI-FI in aree comuni,SKY,Piscina coperta,Fitness/centro salute;American express,Visa,Master Card,Diners,Maestro,Eurocard,JCB,AmexCo,JCV;Inglese,Francese,Spagnolo,Tedesco;Fitness/centro salute,Piscina coperta;Numero sale congressi 5,Congressi capacita' Min 2,Congressi capacita' Max 160;8.75847793;45.64338497
CARDANO AL CAMPO;VARESE;DADO RANCH;Alloggi privati in affitto;Bed & Breakfast;321762598;VIA PER CASORATE 32;21010;VA;;;;;;www.dadoranch.com;2;0;5;2;No;No;No;No;Si;No;No;Si;Si;Access. diversamente abili parziale,Accesso a vetture private,Accettazione animali domestici,Autorimessa,Parco o giardino,Posto auto;;Inglese,Francese,Spagnolo;;;8.75858075;45.65649494
CARDANO AL CAMPO;VARESE;EVERGREEN;Alloggi privati in affitto;Bed & Breakfast;197290719;VIA DEL DOSSO 7;21010;VA;;;;;;w.evergreenitalia.com;3;0;6;3;No;No;No;No;No;No;No;No;No;Access. diversamente abili parziale,Accesso a vetture private,Accettazione animali domestici,Parco o giardino,Posto auto;;Inglese,Francese,Spagnolo;;;8.77022274;45.63757977
CARDANO AL CAMPO;VARESE;HOTEL ASCOT LODGING;Alberghiere;Alberghi 2 stelle;197290758;VIA DELL'ONGARO 48;21010;VA;;;info@ascotlodging.it;0331.262926;0331.262911;www.ascotlodging.com;20;0;40;20;No;No;No;No;Si;No;No;No;No;Ascensore,Bar,Sala televisione separata,Parco o giardino,Accettazione animali domestici,Servizio congressi,Accettazione gruppi,Accesso a vetture private,Parcheggio custodito,Autorimessa,Trasporto clienti stazione,Lavaggio e stiratura biancheria,Pulizia calzature,Servizi baby sitting,Custodia valori in cassaforte,Custodia valori in cassette sicurezza,Aria condizionata non centralizzata,Estintori,Access. diversamente abili parziale;American express,Visa,Master Card,Diners,Tutte,Bancomat,CartaSi,JCB,AmexCo;Inglese,Francese,Spagnolo,Tedesco;;;8.76113691;45.64458333
CARDANO AL CAMPO;VARESE;HOTEL CARDANO;Alberghiere;Alberghi 4 stelle;197290759;VIA AL CAMPO 10;21010;VA;;MALPENSA;info@cardanohotel.com;0331.261011;0331.730829;www.cardanohotel.com;60;13;132;60;Si;No;No;No;No;Si;No;No;No;Ascensore,Ristorante,Bar,Sala televisione separata,Accettazione animali domestici,Accettazione gruppi,Accesso a mezzi pubblici,Accesso a vetture private,Parcheggio custodito,Trasporto clienti stazione,Aria condizionata centralizzata,Access. diversamente abili totale,Estintori,WI-FI in aree comuni;American express,Visa,Master Card,Tutte;Inglese,Francese,Spagnolo;;;8.76717836;45.64235854
CARDANO AL CAMPO;VARESE;HOTEL VISCONTI;Alberghiere;Alberghi 3 stelle;197290704;VIA GRAN PARADISO 16;21010;VA;;;hotel-visconti@hotel-visconti.com;0331.733196;0331.262987;www.hotel-visconti.com;8;0;15;9;No;No;No;No;No;No;No;No;No;Ascensore,Ristorante,Ristorante vegetariano,Sala lettura separata,Sala televisione separata,Accettazione animali domestici,Servizio congressi,Accesso a mezzi pubblici,Parcheggio custodito,Autorimessa,Trasporto clienti stazione,Lavaggio e stiratura biancheria,Pulizia calzature,Discoteca,Aria condizionata non centralizzata,Estintori,Access. diversamente abili parziale;Visa,Master Card,Maestro,Bancomat,JCB,Carta Moneta,Visa Electron;Inglese,Francese,Spagnolo,Tedesco;;;8.76493365;45.65655556
CARDANO AL CAMPO;VARESE;IBIS MILANO MALPENSA AEROPORTO;Alberghiere;Alberghi 3 stelle;327699330;VIA AL CAMPO 100;21010;VA;;;h5141@accor.com;0331.1834711;;www.ibis.com;188;0;376;189;No;Si;No;No;Si;No;No;No;Si;Ascensore,Ristorante,Ristorante vegetariano,Bar,Accettazione animali domestici,Servizio congressi,Accettazione gruppi,Accesso a mezzi pubblici,Accesso a vetture private,Parcheggio custodito,Autorimessa,Lavaggio e stiratura biancheria,Pulizia calzature,Custodia valori in cassette sicurezza,Aria condizionata centralizzata,Access. diversamente abili totale,Estintori,WI-FI in aree comuni;Visa,Master Card,Diners,Tutte,JCB,AmexCo;Inglese,Francese,Spagnolo,Tedesco;;Numero sale congressi 6,Congressi capacita' Min 2,Congressi capacita' Max 150;8.75991725;45.64257667
CARDANO AL CAMPO;VARESE;I DUE NOCI;Alloggi privati in affitto;Bed & Breakfast;197290611;VIA AMALFI 7;21010;VA;;CUORICINO;;;;www.bedandbreakfast-iduenoci.it;1;0;2;1;No;No;No;No;Si;No;No;Si;No;Access. diversamente abili parziale,Accesso a mezzi pubblici,Accesso a vetture private,Accettazione animali domestici,Autorimessa,Parco o giardino,Posto auto,Servizio di pulizia bagno assicurato almeno 1 volta al giorno,Servizio di pulizia e cambio biancheria assicurato almeno 3 volte alla settimana;;Inglese;;;8.77394479;45.65377814
CARDANO AL CAMPO;VARESE;IL VOLO MALPENSA;Complementari;Alloggi iscritti REC gestiti in forma imprenditoriale;303327772;VIA TRIDENTINA 29;21010;VA;;;;;;;3;0;6;3;Si;No;No;No;No;No;No;No;No;Access. diversamente abili parziale,Accesso a vetture private,Accettazione animali domestici,Parco o giardino,Somministrazione alimenti,Somministrazione bevande,Somministrazione alcolici;;Inglese;;;8.77634738;45.6514239
CARDANO AL CAMPO;VARESE;LA CASA DI BENNY;Alloggi privati in affitto;Bed & Breakfast;316781006;VIA PARMA 9;21010;VA;;;;;;www.lacasadibenny.weebly.com;3;0;7;3;No;No;No;No;No;No;No;No;No;Access. diversamente abili parziale,Accesso a vetture private,Accettazione animali domestici,Parco o giardino,Sala televisione separata;;Inglese,Francese,Spagnolo;;;8.77054924;45.63742477
CARDANO AL CAMPO;VARESE;LA PIAZZETTA DEGLI ARCHI;Alloggi privati in affitto;Bed & Breakfast;133549127;VIA DON LUIGI STURZO 2;21010;VA;;;;;;;3;0;6;3;No;No;No;No;Si;Si;No;No;No;Access. diversamente abili parziale,Aria condizionata,Posto auto;;Inglese;;;8.77174102;45.64370647
CARDANO AL CAMPO;VARESE;LA SIESTA;Complementari;Alloggi iscritti REC gestiti in forma imprenditoriale;302971515;VIALE EUROPA OVEST 21;21010;VA;;;;;;www.lasiestabedresidence.com;6;0;12;9;No;No;No;No;No;No;No;No;No;Access. diversamente abili parziale,Accesso a mezzi pubblici,Accesso a vetture private,Accettazione animali domestici,Autorimessa,Lavaggio e stiratura biancheria,Sala televisione separata,Somministrazione alimenti,Somministrazione bevande;;Inglese,Francese;;;8.7641238;45.6435802
CARDANO AL CAMPO;VARESE;MALPENSA HOUSE 2;Complementari;Alloggi iscritti REC gestiti in forma imprenditoriale;197290706;VIA GALILEI 10;21010;VA;;;;;;www.malpensahouse.com;4;0;8;4;No;No;No;No;No;No;No;No;No;Access. diversamente abili parziale,Accesso a mezzi pubblici,Accesso a vetture private,Accettazione animali domestici,Autorimessa;;Inglese,Francese;;;8.76127942;45.64199106
CARDANO AL CAMPO;VARESE;MALPENSA HOUSE 3;Complementari;Alloggi iscritti REC gestiti in forma imprenditoriale;197290662;VIA GALILEI 10;21010;VA;;;;;;www.malpensahouse3.com;3;0;10;3;No;No;No;No;No;No;No;No;No;;;;;;8.76127942;45.64199106
CARDANO AL CAMPO;VARESE;MALPENSA MULTISERVICETRE;Complementari;Alloggi iscritti REC gestiti in forma imprenditoriale;341947397;VIA PER CASORATE 9/D;21010;VA;;;;;;www.malpensamultiservice.com;3;0;7;0;Si;No;No;No;No;No;No;No;No;Autorimessa,Cucina di uso comune,Parco o giardino,Sala televisione separata;;Inglese,Francese,Spagnolo;;;8.75984269;45.65463795
CARDANO AL CAMPO;VARESE;MXPROOMS GUEST HOUSE;Complementari;Case ed appartamenti per vacanze gestiti in forma imprenditoriale;389920250;VIA DELL'ONGARO 8;21010;VA;;;;;;www.mxp-rooms.it;18;0;29;5;No;No;No;No;No;No;No;No;No;;American express,Master Card,Bancomat;;;;8.7640929;45.64567204
CARDANO AL CAMPO;VARESE;NOVOTEL MILANO MALPENSA AEROPORTO;Alberghiere;Alberghi 4 stelle;197290705;VIA AL CAMPO 99;21010;VA;;;h3458-gl@accor.com;0331.266611;0331.730595;www.novotel.com;208;6;422;209;No;No;No;No;No;No;No;No;No;Ascensore,Ristorante,Bar,Accettazione animali domestici,Servizio congressi,Accettazione gruppi,Accesso a mezzi pubblici,Parcheggio custodito,Autorimessa,Lavaggio e stiratura biancheria,Custodia valori in cassette sicurezza,Aria condizionata centralizzata,Access. diversamente abili totale,Estintori,Area fumatori,WI-FI in aree comuni;Visa,Diners,Tutte,CartaSi,JCB,AmexCo;Inglese,Francese,Spagnolo,Tedesco;;Numero sale congressi 6,Congressi capacita' Min 2,Congressi capacita' Max 200;8.75990973;45.64257531
CARNAGO;VARESE;B&B VILLA IDA;Alloggi privati in affitto;Bed & Breakfast;357328500;VIA VITTORIO VENETO 21;21040;VA;;;;;;www.villaida.eu;2;0;5;2;No;No;No;No;Si;Si;No;No;Si;Access. diversamente abili parziale,Accesso a mezzi pubblici,Accesso a vetture private,Parco o giardino,Posto auto,Sala televisione separata;;Inglese,Francese,Spagnolo;;;8.83342229;45.72621737
CARNAGO;VARESE;BED&BREAKFAST VILLA FONTANA;Alloggi privati in affitto;Bed & Breakfast;385364295;VIA DELLA FONTANA 27;21040;VA;;;;;;www.bbvillafontana.it;3;0;9;1;No;No;No;No;No;No;No;Si;No;Parco o giardino,Sala televisione separata;;;;;8.8370918;45.7194473
CARONNO PERTUSELLA;VARESE;BBCARONNO;Complementari;Alloggi iscritti REC gestiti in forma imprenditoriale;322233187;VIA ROMA 3;21042;VA;;;;;;www.bbcaronno.com;1;0;3;1;No;No;No;No;No;No;No;No;No;Access. diversamente abili parziale,Accesso a mezzi pubblici,Accesso a vetture private,Ascensore,Autorimessa;;Inglese,Tedesco;;;9.04517978;45.59769743
CARONNO PERTUSELLA;VARESE;HOTEL DEL PONTE;Alberghiere;Alberghi 3 stelle;197290763;VIA ENRICO TOTI 417;21042;VA;;;info@hoteldelponte.it;02.96451732;;www.hotel-delponte.it;10;0;20;11;Si;No;No;No;No;No;No;No;Si;Ascensore,Ristorante,Ristorante vegetariano,Bar,Sala lettura separata,Accettazione animali domestici,Servizio congressi,Accettazione gruppi,Accesso a mezzi pubblici,Trasporto clienti stazione,Custodia valori in cassette sicurezza,Aria condizionata centralizzata,Estintori,Access. diversamente abili parziale;Visa,Master Card,Tutte;Inglese,Francese,Spagnolo,Tedesco;;;9.05939549;45.59419752
CASALE LITTA;VARESE;B&B AL CASTELLO;Alloggi privati in affitto;Bed & Breakfast;302348386;VICOLO SAN FRANCESCO 19;21020;VA;;;;;;www.bebalcastello.eu;1;0;2;1;No;No;No;No;Si;Si;No;No;Si;Access. diversamente abili parziale,Accesso a mezzi pubblici,Accesso a vetture private,Accettazione animali domestici,Autorimessa,Parco o giardino,Posto auto;Visa,Master Card,CartaSi;Inglese,Spagnolo;;;8.7398759;45.7675015
CASALE LITTA;VARESE;PASQUE';Complementari;Alloggi Agrituristici;197290764;VIA PRIMO MAGGIO 11;21020;VA;;;;;;;9;0;17;11;Si;No;No;No;No;No;No;No;No;Access. diversamente abili parziale,Accesso a vetture private,Accettazione animali domestici,Accettazione gruppi,Estintori,Riscaldamento;;;;;8.734845;45.77793276
CASALZUIGNO;VARESE;ANTICO BORGO SANDA;Alloggi privati in affitto;Bed & Breakfast;197290766;VIA SANDA 16;21030;VA;;;;;;www.borgosanda.com;2;0;6;2;No;No;No;No;No;No;No;No;No;Parco o giardino;;Inglese,Francese;;;8.70723145;45.90699222
CASALZUIGNO;VARESE;B&B IL CORTILE;Alloggi privati in affitto;Bed & Breakfast;197290765;VIA LIBERTA' 87;21030;VA;;;;;;www.ilcortile.biz;3;0;6;2;No;No;No;No;No;No;No;No;No;Access. diversamente abili parziale,Parco o giardino;;Inglese,Tedesco;;;8.70218596;45.9039981
CASCIAGO;VARESE;LA CASA DI PAMELA;Alloggi privati in affitto;Bed & Breakfast;384715547;VIA FRATELLI BANDIERA 3;21020;VA;;;;;;www.lacasadipamela.com;3;0;5;3;No;No;No;No;No;No;No;No;No;Accesso a mezzi pubblici,Accesso a vetture private,Accettazione animali domestici,Aria condizionata,Parco o giardino,Posto auto,Sala televisione separata;American express,Visa,Master Card,Diners,Maestro,Bancomat,CartaSi;Inglese,Francese,Spagnolo,Tedesco;;;8.77774106;45.82673165
CASCIAGO;VARESE;VILLA CAMPO DEI FIORI B&B;Alloggi privati in affitto;Bed & Breakfast;384645802;VIA DELLA PIANA 6;21020;VA;MOROSOLO;;;;;;2;0;4;3;No;No;No;No;No;No;No;Si;No;Accettazione animali domestici,Parco o giardino,Sala televisione separata;Visa,Master Card;Inglese,Spagnolo,Tedesco;;;8.76182753;45.82809796
CASORATE SEMPIONE;VARESE;B&B I CASTAGNI;Alloggi privati in affitto;Bed & Breakfast;197290624;VIA ADUA 18;21011;VA;;;;;;www.icastagni-bb.it;2;0;4;2;No;No;No;No;Si;Si;No;No;No;Access. diversamente abili parziale,Accesso a mezzi pubblici,Accesso a vetture private,Aria condizionata,Parco o giardino,Posto auto;American express,Visa,Master Card;Inglese,Francese,Spagnolo,Tedesco;;;8.737033;45.674391
CASORATE SEMPIONE;VARESE;B&B IL CORTILE MALPENSA;Alloggi privati in affitto;Bed & Breakfast;197290696;VIA TORINO 63;21011;VA;;;;;;www.ilcortilecasorate.it;2;0;4;0;No;No;No;No;No;No;No;No;No;Access. diversamente abili parziale,Accesso a mezzi pubblici,Accesso a vetture private,Accettazione animali domestici,Parco o giardino,Sala televisione separata;;Inglese,Francese;;;8.73903992;45.67347489
CASORATE SEMPIONE;VARESE;B&B IL POGGIO;Alloggi privati in affitto;Bed & Breakfast;197290769;VIA SAN MARTINO 11;21011;VA;;;;;;www.ilpoggiodiste.it;1;0;4;1;No;No;No;No;Si;No;No;Si;No;Access. diversamente abili parziale,Accesso a mezzi pubblici,Accesso a vetture private,Aria condizionata,Autorimessa,Parco o giardino,Posto auto,Sala televisione separata;;Inglese,Francese,Spagnolo;;;8.7393946;45.6676659
CASORATE SEMPIONE;VARESE;HOTEL OSTERIA DELLA PISTA;Alberghiere;Alberghi 4 stelle;197290767;VIA VERBANO 1;21011;VA;;;hotel@osteriadellapista.com;0331.295054;0331.764919;www.osteriadellapista.com;30;2;64;32;No;Si;No;No;No;No;No;No;Si;Ascensore,Ristorante,Ristorante vegetariano,Bar,Sala lettura separata,Accettazione animali domestici,Servizio congressi,Accesso a mezzi pubblici,Accesso a vetture private,Parcheggio custodito,Trasporto clienti stazione,Lavaggio e stiratura biancheria,Custodia valori in cassaforte,Custodia valori in cassette sicurezza,Aria condizionata centralizzata,Estintori,WI-FI in aree comuni,Access. diversamente abili parziale;Visa,Diners,Tutte,Bancomat,CartaSi,AmexCo;Inglese,Francese,Spagnolo,Tedesco;;Numero sale congressi 1,Congressi capacita' Min 2,Congressi capacita' Max 50;8.74011761;45.67416748
CASORATE SEMPIONE;VARESE;HOTEL SEMPIONE;Alberghiere;Alberghi 3 stelle;197290768;VIA SEMPIONE 69;21011;VA;;;info@sempionehotel.it;0331.295105;0331.296153;www.sempionehotel.it;11;0;15;11;Si;Si;No;No;No;No;No;No;Si;Ristorante,Ristorante vegetariano,Bar,Accettazione animali domestici,Servizio congressi,Accettazione gruppi,Accesso a mezzi pubblici,Accesso a vetture private,Autorimessa,Trasporto clienti stazione,Custodia valori in cassaforte,Custodia valori in cassette sicurezza,Aria condizionata non centralizzata,Access. diversamente abili totale,Estintori,Access. diversamente abili parziale;American express,Visa,Master Card,Diners,CartaSi,AmexCo;Inglese,Francese,Spagnolo;;;8.7389313;45.67606565
CASORATE SEMPIONE;VARESE;IL POZZO;Alloggi privati in affitto;Bed & Breakfast;197290770;VIA PIAVE 17;21011;VA;;;;;;;2;0;3;2;No;No;No;No;Si;No;No;Si;No;Access. diversamente abili parziale,Accesso a mezzi pubblici,Accesso a vetture private,Accettazione animali domestici,Autorimessa,Parco o giardino,Posto auto,Sala televisione separata;;Inglese,Francese;;;8.74119423;45.67018192
CASORATE SEMPIONE;VARESE;IL TERRAZZO B&B;Alloggi privati in affitto;Bed & Breakfast;197290714;VIA SAN ROCCO 21;21011;VA;;;;;;www.ilterrazzo.it;4;0;10;4;No;No;No;No;Si;Si;No;No;No;Access. diversamente abili parziale,Accesso a vetture private,Accettazione animali domestici,Aria condizionata,Parco o giardino,Posto auto,Sala televisione separata;;Inglese,Francese,Spagnolo;;;8.7363101;45.67093105
CASSANO MAGNAGO;VARESE;A DUE PASSI DAL MONDO;Alloggi privati in affitto;Bed & Breakfast;385752553;VIA ANTONIO CANOVA 27;21012;VA;;;;;;www.aduepassidalmondo.it;3;0;6;3;No;No;No;No;Si;No;No;Si;Si;Access. diversamente abili parziale,Accettazione animali domestici,Posto auto;;Inglese;;;8.8218882;45.65857094
CASSANO MAGNAGO;VARESE;B&B S.G.A.M.A.;Alloggi privati in affitto;Bed & Breakfast;354823240;VIA UMBRIA 10/B;21012;VA;;;;;;;3;0;6;3;No;No;No;No;No;No;No;No;No;Access. diversamente abili totale,Accesso a vetture private,Aria condizionata,Parco o giardino;;;;;8.83566;45.65587112
CASSANO MAGNAGO;VARESE;HOTEL ROMA;Alberghiere;Alberghi 3 stelle;197290771;VIA IV NOVEMBRE 37;21012;VA;;;info@hotelromacassano.com;0331.200155;0331 200428;www.hotelromacassano.com;31;11;73;31;Si;Si;No;No;No;No;No;No;Si;Ascensore,Bar,Sala televisione separata,Accettazione gruppi,Accesso a mezzi pubblici,Accesso a vetture private,Parcheggio custodito,Autorimessa,Custodia valori in cassaforte,Aria condizionata centralizzata,WI-FI in aree comuni;Visa,Master Card,Tutte,Bancomat;Inglese,Francese,Spagnolo,Tedesco;;;8.82385882;45.67234785
CASSANO VALCUVIA;VARESE;AL CAVALLINO BIANCO;Complementari;Alloggi Agrituristici;197290772;VIA PER FERRERA 50;21030;VA;;;;;;www.alcavallino.it;6;0;24;10;No;No;No;No;No;No;No;No;No;Access. diversamente abili parziale,Accettazione animali domestici,Estintori,Riscaldamento,Sala lettura separata;;Inglese,Francese,Tedesco;;;8.77546653;45.93302103
CASTELLANZA;VARESE;ALICIA;Alloggi privati in affitto;Bed & Breakfast;197290672;VIA LUIGI POMINI 5;21053;VA;;;;;;www.bbalicia.it;2;0;6;2;No;No;No;No;No;Si;No;No;No;;;;;;8.89672374;45.61437248
CASTELLANZA;VARESE;B&B PICCOLO MONDO ANTICO;Alloggi privati in affitto;Bed & Breakfast;197290612;VIA GIUSTI 24;21053;VA;;;;;;www.nelpiccolomondoantico.it;3;0;9;3;No;No;No;No;Si;Si;No;No;Si;Access. diversamente abili parziale,Accesso a mezzi pubblici,Accesso a vetture private,Accettazione animali domestici,Parco o giardino,Posto auto,Sala televisione separata;;Inglese;;;8.89317275;45.60801365
CASTELLANZA;VARESE;HOTEL MONTECARLO;Alberghiere;Alberghi 3 stelle;197290773;VIA SARONNO 4;21053;VA;;;info@montecarlohotel.it;0331.442327;0331.441559;www.montecarlohotel.it;12;0;21;12;Si;Si;No;No;No;No;No;No;Si;Bar,Accettazione gruppi,Accesso a mezzi pubblici,Accesso a vetture private,Parcheggio custodito,Custodia valori in cassette sicurezza,Aria condizionata non centralizzata,Estintori;American express,Visa,Master Card,Diners,Tutte,CartaSi;Inglese,Francese;;;8.9095898;45.607561
CASTELLANZA;VARESE;LA VOLPE PESCATRICE;Complementari;Alloggi iscritti REC gestiti in forma imprenditoriale;307914199;VIA NIZZOLINA 22;21053;VA;;;;;;www.albergocastellanza.it;6;0;10;6;No;No;No;No;No;No;No;No;No;Access. diversamente abili parziale,Accettazione animali domestici,Autorimessa,Lavaggio e stiratura biancheria,Parco o giardino,Somministrazione alimenti,Somministrazione bevande,Somministrazione alcolici;;Inglese,Spagnolo;;;8.90604689;45.61729635
CASTELLO CABIAGLIO;VARESE;B&B LE COLONNE;Alloggi privati in affitto;Bed & Breakfast;347181477;VIA PROVINCIALE PER ORINO 2;21030;VA;;;;;;;2;0;6;0;No;No;No;No;Si;No;No;Si;No;Access. diversamente abili totale,Accesso a mezzi pubblici,Accesso a vetture private,Parco o giardino,Posto auto,Sala televisione separata;;Inglese,Francese,Spagnolo;;;8.75557786;45.8912595
CASTELLO CABIAGLIO;VARESE;ICASAMIA;Complementari;Case ed appartamenti per vacanze gestiti in forma imprenditoriale;382518314;VIA SAN CARLO 2/4;21030;VA;;;;;;www.icasamia.it;12;0;41;10;No;No;No;No;No;No;No;No;No;;;;;;8.75592317;45.89375357
CASTELLO CABIAGLIO;VARESE;LA CORTE DELL'ORSO;Alloggi privati in affitto;Bed & Breakfast;197290604;VIA DELL'ORSO 7;21030;VA;;;;;;www.lacortedellorso.it;3;0;6;3;No;No;No;No;Si;Si;No;No;No;Access. diversamente abili parziale,Accettazione animali domestici,Parco o giardino;;Inglese;;;8.75511509;45.89249676
CASTELLO CABIAGLIO;VARESE;PALAZZO RONCHELLI;Alloggi privati in affitto;Bed & Breakfast;301102625;VIA MAZZINI 10;21030;VA;;;;;;www.palazzoronchelli.it;3;0;6;3;No;No;No;No;Si;No;No;No;Si;Accettazione animali domestici,Parco o giardino,Sala televisione separata;;Inglese,Francese;;;8.7548865;45.8930971
CASTELVECCANA;VARESE;AGRITURISMO TSCHANG WILMA;Complementari;Alloggi Agrituristici;197290775;VIA PIRA PIANEGGI 9/11;21010;VA;;;;;;www.agriturismocelestino.it;8;0;19;11;No;No;No;No;No;No;No;No;No;Access. diversamente abili parziale,Accettazione animali domestici,Estintori;;Inglese;;;8.666327;45.947978
CASTELVECCANA;VARESE;ANTICO VICOLO DEL TORCHIO;Alloggi privati in affitto;Bed & Breakfast;307016429;VIA MARTIRI ZAMPORI 44;21010;VA;;;;;;www.anticovicolo.altervista.org;2;0;4;3;No;No;No;No;No;Si;No;No;No;Access. diversamente abili parziale,Accesso a mezzi pubblici,Accettazione animali domestici,Parco o giardino,Posto auto;;Inglese,Francese;;;8.67103818;45.95164647
CASTELVECCANA;VARESE;B&B CASA VALLATE;Alloggi privati in affitto;Bed & Breakfast;340482366;VIA ZAMPORI 28;21010;VA;;;;;;www.casavallate.com;4;0;12;5;No;No;No;No;No;No;No;No;No;Access. diversamente abili parziale,Accesso a mezzi pubblici,Accesso a vetture private,Accettazione animali domestici,Posto auto;Tutte;Inglese,Francese,Spagnolo,Tedesco,Olandese;;;8.67162598;45.95288212
CASTELVECCANA;VARESE;B&B IL GATTO NERO;Alloggi privati in affitto;Bed & Breakfast;300953942;VIA SANT'ANTONIO 1;21010;VA;;;;;;;3;0;7;3;No;No;No;No;No;No;No;Si;No;Accesso a vetture private,Accettazione animali domestici,Parco o giardino,Posto auto;;Inglese,Francese,Spagnolo,Tedesco;;;8.69012255;45.94763396
CASTELVECCANA;VARESE;B&B VERDEAZZURRO;Alloggi privati in affitto;Bed & Breakfast;197290655;LOCALITA' S. ANTONIO 8;21100;VA;;;;;;www.bbverdeazzurro.eu;2;0;4;1;No;No;No;No;No;No;No;No;No;Access. diversamente abili parziale,Accesso a vetture private,Accettazione animali domestici,Parco o giardino,Posto auto;;Inglese,Francese;;;8.6902402;45.94749174
CASTELVECCANA;VARESE;BED AND BREAKFAST DA PIO;Alloggi privati in affitto;Bed & Breakfast;356129773;VIA MARTIRI ZAMPORI 6;21010;VA;San Pietro;;;;;www.bedandbreakfastdapio.it;4;0;8;4;No;No;No;No;No;No;No;No;No;Access. diversamente abili parziale,Accesso a vetture private,Autorimessa;;Inglese,Francese,Tedesco;;;8.67054129;45.95397291
CASTELVECCANA;VARESE;RIFUGIO DE GRANDI - ADAMOLI;Complementari;Rifugi di montagna;197290639;ALPE CUVIGNONE;21010;VA;;;;0332.771199;;;2;0;6;1;No;;;;;;;;;;;;;;8.666327;45.947978
CASTELVECCANA;VARESE;SANTA VERONICA;Complementari;Alloggi iscritti REC gestiti in forma imprenditoriale;197290666;VIA MONFALCONE 7;21010;VA;CALDE';;;;;www.santaveronicaguesthouse.com;6;0;12;3;Si;No;No;No;No;No;No;No;No;Access. diversamente abili parziale,Accesso a mezzi pubblici,Accettazione animali domestici,Parco o giardino,Sala lettura separata,Sala televisione separata,Somministrazione alcolici;;Inglese,Francese,Spagnolo;;;8.66184269;45.94718476
CASTIGLIONE OLONA;VARESE;B&B LA CORTE DELLE STALLE;Alloggi privati in affitto;Bed & Breakfast;325376830;VIA CAVOUR 1;21043;VA;;;;;;www.lacortedellestalle.webs.com;2;0;6;2;No;No;No;No;No;Si;No;No;No;Access. diversamente abili parziale,Accesso a mezzi pubblici,Accesso a vetture private,Accettazione animali domestici,Posto auto;;Inglese,Francese;;;8.86606705;45.75520955
CASTIGLIONE OLONA;VARESE;B&B SAN NICOLA;Alloggi privati in affitto;Bed & Breakfast;197290776;VIA PAPA CELESTINO 28;21043;VA;;;;;;;2;0;3;4;No;No;No;No;No;Si;No;No;No;Access. diversamente abili parziale,Accesso a vetture private,Autorimessa,Parco o giardino,Posto auto;;Inglese,Francese;;;8.8727807;45.7550557
CASTIGLIONE OLONA;VARESE;STELLA DEL BORGO;Alloggi privati in affitto;Bed & Breakfast;333042802;VIA TENENTE NICORA 8;21043;VA;;;;;;www.stelladelborgo.it;2;0;4;3;No;No;No;No;No;No;No;Si;No;Accesso a vetture private,Accettazione animali domestici,Giochi per bambini,Parco o giardino,Posto auto;;Inglese,Francese;;;8.8798418;45.7516225
CASTRONNO;VARESE;B&B DELLA GAZZA;Alloggi privati in affitto;Bed & Breakfast;197290777;VIA ROMA 14;21040;VA;;;;;;www.dellagazza.com;3;0;6;6;No;No;No;No;Si;No;No;No;No;Accesso a mezzi pubblici,Accesso a vetture private,Parco o giardino,Posto auto;;Inglese;;;8.80782241;45.74388697
CASTRONNO;VARESE;VILLA EMILIA;Alloggi privati in affitto;Bed & Breakfast;351747257;VIA MOTTARONE 7;21040;VA;;;;;;;3;0;5;3;No;No;No;No;Si;Si;No;No;Si;Access. diversamente abili totale,Access. diversamente abili parziale,Accesso a mezzi pubblici,Accesso a vetture private,Accettazione animali domestici,Autorimessa,Parco o giardino;;Inglese,Francese;;;8.81318641;45.74862511
CASTRONNO;VARESE;VILLA MONTEROSA;Alloggi privati in affitto;Bed & Breakfast;197290613;VIA ROSSINI 4;21040;VA;;;;;;www.villamonterosa.eu;4;0;12;4;No;No;No;No;Si;No;No;Si;No;Access. diversamente abili parziale,Accesso a mezzi pubblici,Accesso a vetture private,Accettazione animali domestici,Autorimessa,Parco o giardino,Posto auto;Visa,Bancomat;Inglese,Francese,Spagnolo;;;8.82097394;45.75080475
CAZZAGO BRABBIA;VARESE;B&B LA CASA CREATIVA;Alloggi privati in affitto;Bed & Breakfast;384610976;VIA ORRIGONI 6;21020;VA;;;;;;www.lacasacreativa.it;2;0;4;2;No;No;No;No;No;No;No;No;No;Accesso a mezzi pubblici,Accesso a vetture private,Parco o giardino;;Inglese,Francese;;;8.73255055;45.79848862
CISLAGO;VARESE;ALBERGO SANT'AMBROGIO;Alberghiere;Alberghi 2 stelle;197290780;VIA CESARE BATTISTI 995;21040;VA;;;info@locandasantambrogio.it;02.96380307;02.96382672;www.locandasantambrogio.it;39;0;62;34;Si;Si;No;No;No;No;No;No;Si;Ascensore,Ristorante,Bar,Sala lettura separata,Sala televisione separata,Parco o giardino,Accettazione animali domestici,Accettazione gruppi,Accesso a mezzi pubblici,Parcheggio custodito,Custodia valori in cassaforte,Aria condizionata centralizzata,Access. diversamente abili totale,Estintori,Access. diversamente abili parziale;Visa,Master Card;;;Numero sale congressi 1,Congressi capacita' Max 30;8.97574313;45.65976426
CISLAGO;VARESE;B AND B LANDONI;Alloggi privati in affitto;Bed & Breakfast;389178520;VIA MAGENTA 226;21040;VA;;;;;;;2;0;4;2;No;No;No;No;No;No;No;No;No;Accesso a mezzi pubblici,Accettazione animali domestici,Sauna privata;;Inglese;;;8.97105515;45.6557409
CISLAGO;VARESE;I CHERUBINI B&B;Alloggi privati in affitto;Bed & Breakfast;317137896;VIA XXIV MAGGIO 255;21033;VA;;;;;;;3;0;5;4;No;No;No;No;No;Si;No;No;No;Access. diversamente abili parziale,Accesso a mezzi pubblici,Accesso a vetture private,Accettazione animali domestici,Posto auto;;Inglese;;;8.97678869;45.66024766
CITTIGLIO;VARESE;ALBERGO CRISTALLO SRL;Alberghiere;Alberghi 2 stelle;197290781;VIA PROVINCIALE 75;21033;VA;;;info@albergocristallo.com;0332.601336;0332 603642;www.albergocristallo.com;26;0;44;26;Si;Si;No;No;No;No;No;No;Si;Ascensore,Ristorante,Bar,Sala lettura separata,Sala televisione separata,Parco o giardino,Accettazione animali domestici,Accettazione gruppi,Accesso a mezzi pubblici,Accesso a vetture private,Autorimessa,Trasporto clienti stazione,Custodia valori in cassaforte,Custodia valori in cassette sicurezza,Aria condizionata non centralizzata,Access. diversamente abili totale,Estintori;Visa,Master Card,Diners,Citibank,Bank Americard,Maestro,Bancomat,Eurocard,CartaSi,JTB,JBC,JCB,AmexCo,Carta Moneta,Masterchange,BAC,Key Client,JCV,EDC,Carte Blanche,Top Card,MobilMat,Visa Electron;Inglese,Francese,Spagnolo,Tedesco,Arabo;;;8.65979895;45.8947584
CITTIGLIO;VARESE;ALBERGO RISTORANTE LA BUSSOLA;Alberghiere;Alberghi 3 stelle;197290782;VIA MARCONI 26/28;21033;VA;;;info@hotellabussola.it;0332.602291;0332.610250;www.hotellabussola.it;21;0;34;21;No;Si;No;No;No;No;No;No;Si;Ristorante,Ristorante vegetariano,Tavernetta o tavola calda,Bar,Giochi per bambini,Sala lettura separata,Parco o giardino,Accettazione animali domestici,Servizio congressi,Accettazione gruppi,Accesso a mezzi pubblici,Accesso a vetture private,Autorimessa,Trasporto clienti stazione,Lavaggio e stiratura biancheria,Servizi baby sitting,Custodia valori in cassaforte,Custodia valori in cassette sicurezza,Sauna privata,Aria condizionata non centralizzata,Access. diversamente abili parziale;Tutte;Inglese,Francese,Spagnolo,Tedesco;;Numero sale congressi 2,Congressi capacita' Min 10,Congressi capacita' Max 100;8.6672298;45.8927328
CITTIGLIO;VARESE;VILLA ROSA LA BUSSOLA;Alberghiere;Alberghi 3 stelle;316780735;VIA MARCONI 28;21033;VA;;;info@hotellabussola.it;0332.602291;0332.610250;www.hotellabussola.it;6;0;9;6;No;No;No;No;No;No;No;No;No;Ristorante,Parco o giardino,Accettazione animali domestici,Servizio congressi,Accettazione gruppi,Accesso a mezzi pubblici,Accesso a vetture private,Autorimessa,Trasporto clienti stazione,Lavaggio e stiratura biancheria,Custodia valori in cassaforte,Custodia valori in cassette sicurezza,Aria condizionata centralizzata,Access. diversamente abili totale;Tutte;Inglese,Francese,Spagnolo,Tedesco;;Numero sale congressi 2,Congressi capacita' Min 10,Congressi capacita' Max 100;8.6672298;45.8927328
CLIVIO;VARESE;LA RIVA DEGLI ALPACA;Alloggi privati in affitto;Bed & Breakfast;304598233;VIA MULINO DI SOTTO 3B;21050;VA;;AI MULINI;;;;www.larivadeglialpaca.it;3;0;6;3;No;No;No;No;No;No;No;No;No;Access. diversamente abili parziale,Accesso a vetture private,Accettazione animali domestici,Giochi per bambini,Parco o giardino,Posto auto,Sala televisione separata,Servizio di pulizia bagno assicurato almeno 1 volta al giorno;;;;;8.9186407;45.8579871
CLIVIO;VARESE;LA RIVA DEGLI ALPACA 2;Alloggi privati in affitto;Bed & Breakfast;384737126;VIA MULINO DI SOTTO 3B;21050;VA;;ai Mulini;;;;www.larivadeglialpaca.it;1;0;4;1;No;No;No;No;No;No;No;No;No;Accesso a vetture private,Accettazione animali domestici,Parco o giardino,Sala televisione separata;;;;;8.9186407;45.8579871
COMABBIO;VARESE;CAMPEGGIO LAGO DI MONATE;Complementari;Campeggi e aree attrezzate per camper e roulotte 2 stelle;197290783;VIA LAGO DI MONATE 497;21020;VA;;;campeggiolagodimonate@gmail.com;0331.1832631;0331.968566;;133;0;399;28;No;No;Si;No;No;No;No;No;No;Ristorante,Bar,Sala lettura separata,Sala televisione separata,Accettazione animali domestici,Accettazione gruppi,Parcheggio custodito,Lavaggio e stiratura biancheria,Spiaggia privata,Ormeggio,Access. diversamente abili totale,Rifornimento benzina immediate vicinanze,Spaccio alimentari,Rifornimento gas liquido,Servizio bancario,Telefono per uso comune,Piazzole prevalentemente a prato,Area riservata per intrattenimenti e spettacoli,Animazione professionale,Area attrezzata gioco bimbi,Miniclub,Noleggio natanti e/o imbarcazioni,Internet point,Locale di ritrovo,Estintori,Attrezzatura di pronto soccorso,Attivit? ricreative varie,Bigliardo,Lavapiedi,Barbecue;American express,Visa,Master Card,Tutte,Bancomat;Inglese,Francese,Spagnolo,Tedesco,Olandese;Campo da pallavolo,Calciobalilla,Noleggio biciclette,Campo attrezzato per pallavolo, beach volley, pallacanestro, calcetto,Campo da bocce,Escursioni organizzate,attività sportive varie,Tennis da tavolo;;8.67934205;45.78354775
COMERIO;VARESE;B&B VILLA ERMELINDA;Alloggi privati in affitto;Bed & Breakfast;357808716;VIA G. VERDI 7;21025;VA;;;;;;;3;0;4;2;No;No;No;No;No;No;No;No;No;Access. diversamente abili parziale,Accesso a mezzi pubblici,Accesso a vetture private,Parco o giardino,Posto auto;;Inglese,Francese;;;8.74274572;45.83814675
COMERIO;VARESE;HOTEL BEL SIT SRL;Alberghiere;Alberghi 4 stelle;197290784;VIA BORGHI 28;21025;VA;;;info@hotelbelsit.it;0332.744160;0332.744977;www.hotelbelsit.it;31;2;58;34;Si;Si;Si;No;No;No;No;No;No;Ascensore,Ristorante,Ristorante vegetariano,Bar,Sala lettura separata,Sala televisione separata,Parco o giardino,Accettazione animali domestici,Servizio congressi,Accettazione gruppi,Accesso a mezzi pubblici,Accesso a vetture private,Autorimessa,Trasporto clienti stazione,Lavaggio e stiratura biancheria,Custodia valori in cassaforte,Custodia valori in cassette sicurezza,Sauna privata,Aria condizionata centralizzata,Aria condizionata non centralizzata,Access. diversamente abili totale,Internet point,Estintori,Access. diversamente abili parziale,Fitness/centro salute;Visa,Master Card,Tutte,Maestro,Bancomat;Inglese,Francese,Spagnolo,Tedesco,Arabo;Fitness/centro salute,Piscina coperta;Numero sale congressi 2,Congressi capacita' Min 4,Congressi capacita' Max 250;8.73428222;45.84215568
CUASSO AL MONTE;VARESE;B&B LE CINQUE VETTE;Alloggi privati in affitto;Bed & Breakfast;383238010;VIA CINQUE VETTE 5;21050;VA;;;;;;;1;0;3;1;No;No;No;No;No;No;No;No;No;Parco o giardino,Posto auto;;Inglese,Francese,Spagnolo;;;8.879232;45.914779
CUASSO AL MONTE;VARESE;HOTEL RISTORANTE ALPINO;Alberghiere;Alberghi 3 stelle;197290785;VIA PER CUASSO AL PIANO 1;21050;VA;;;info@hotelalpinovarese.com;0332.939083;0332.939094;www.hotelalpinovarese.com;19;0;26;19;No;Si;No;No;No;No;No;No;No;Ascensore,Ristorante,Bar,Sala lettura separata,Sala televisione separata,Parco o giardino,Accettazione animali domestici,Accesso a mezzi pubblici,Accesso a vetture private,Parcheggio custodito,Autorimessa,Lavaggio e stiratura biancheria,Custodia valori in cassaforte,Custodia valori in cassette sicurezza,Access. diversamente abili parziale,Televisione satellitare;Visa,Master Card,Bancomat,CartaSi,Carta Moneta,Visa Electron;Inglese,Francese,Spagnolo;;;8.87183236;45.9051109
CUASSO AL MONTE;VARESE;MOLINO DEL TORCHIO;Complementari;Alloggi iscritti REC gestiti in forma imprenditoriale;197290682;VIA MOLINO DEL TORCHIO 17;21050;VA;;;;;;www.molinodeltorchio.com;2;0;6;2;Si;No;No;No;No;No;No;No;No;Access. diversamente abili parziale,Accesso a mezzi pubblici,Accesso a vetture private,Accettazione animali domestici,Parco o giardino,Sala lettura separata,Sala televisione separata,Somministrazione bevande;;Inglese,Francese;;;8.88251778;45.89162139
CUASSO AL MONTE;VARESE;ROSE TRA GLI ARCHI;Alloggi privati in affitto;Bed & Breakfast;197290787;VIA ALBERE' 2;21050;VA;;;;;;www.rosetragliarchi.com;3;0;5;3;No;No;No;No;No;No;No;No;No;Access. diversamente abili parziale,Accesso a vetture private,Parco o giardino,Posto auto;;Inglese,Tedesco;;;8.879232;45.914779
CUNARDO;VARESE;DOLCI RICORDI;Alloggi privati in affitto;Bed & Breakfast;133632074;VIA DEL FILATOIO 2;21035;VA;;;;;;www.bebdolciricordi.it;4;0;9;2;No;No;No;No;No;Si;No;No;No;Access. diversamente abili parziale,Accesso a mezzi pubblici,Accesso a vetture private,Parco o giardino,Posto auto,Sala televisione separata;;Inglese,Francese;;;8.80435123;45.93370029
CUNARDO;VARESE;IL NUOVO GROTTO VIGNAZZA;Alberghiere;Alberghi 3 stelle;197290788;VIA BARAGGIA 17;21035;VA;;;info@ilnuovogrottovignazza.it;0332.716192;0332.716458;www.ilnuovogrottovignazza.it;22;0;45;22;Si;Si;No;No;No;No;No;No;No;Ascensore,Ristorante,Ristorante vegetariano,Bar,Parco o giardino,Accettazione animali domestici,Servizio congressi,Accettazione gruppi,Accesso a mezzi pubblici,Accesso a vetture private,Parcheggio custodito,Autorimessa,Custodia valori in cassaforte,Custodia valori in cassette sicurezza,Access. diversamente abili totale,Estintori,Access. diversamente abili parziale;American express,Visa,Master Card,Citibank,Bank Americard,Tutte,Maestro,Bancomat,Eurocard,CartaSi,JTB,JBC,JCB,AmexCo,Carta Moneta,Masterchange,BAC,Key Client,JCV,EDC,Carte Blanche;Inglese;;;8.80518242;45.9329342
CURIGLIA CON MONTEVIASCO;VARESE;AGRITURISMO KEDO;Complementari;Alloggi Agrituristici;197290790;VIA ADDOLORATA;21010;VA;PIERO;;;;;www.agriturismokedo.it;2;0;4;3;Si;No;No;No;No;No;No;No;No;Accettazione animali domestici,Lavaggio e stiratura biancheria,Sala lettura separata;;Inglese,Tedesco;;;8.82619640775301;46.05909185
CURIGLIA CON MONTEVIASCO;VARESE;VILLA VIOLA;Complementari;Case ed appartamenti per vacanze gestiti in forma imprenditoriale;332625671;VIA CARLO VIOLA 1;21010;VA;;;;;;;5;0;14;4;No;No;No;No;No;No;No;No;No;Access. diversamente abili parziale,Accettazione animali domestici;;;;;8.80398823;46.05948831
CUVIO;VARESE;AZIENDA AGRITURISTICA LAGO D'ORO;Complementari;Alloggi Agrituristici;309815081;VIA PER CAVONA;21030;VA;;CAVONA;;;;;6;0;11;12;No;No;No;No;No;No;No;No;No;Access. diversamente abili parziale,Accesso a mezzi pubblici,Accesso a vetture private,Accettazione animali domestici,Estintori,Riscaldamento;;Inglese,Francese;;;8.73587087;45.8969143
CUVIO;VARESE;HOTEL RISTORANTE CORONA;Alberghiere;Alberghi 2 stelle;197290792;LARGO CAPPIA 6;21030;VA;;;info@hotelcoronacuvio.com;0332.624150;0332.624189;www.hotelcoronacuvio.com;24;0;36;25;Si;Si;No;No;No;No;No;No;No;Ristorante,Ristorante vegetariano,Bar,Sala lettura separata,Sala televisione separata,Parco o giardino,Accettazione animali domestici,Accettazione gruppi,Accesso a mezzi pubblici,Accesso a vetture private,Lavaggio e stiratura biancheria,Pulizia calzature,Custodia valori in cassaforte,Custodia valori in cassette sicurezza,Aria condizionata non centralizzata,Estintori,Access. diversamente abili parziale;American express,Visa,Master Card,Diners,Citibank,Bank Americard,Maestro,Bancomat,Eurocard,CartaSi,JTB,JBC,JCB,AmexCo,Carta Moneta,Masterchange,BAC,Key Client,JCV,EDC,Carte Blanche,Top Card,MobilMat,Visa Electron;Inglese,Francese;;;8.72908399;45.89595622
DAVERIO;VARESE;AGRITURISMO CASCINA FONTANA;Complementari;Alloggi Agrituristici;197290793;VIA CASCINA FONTANA 11;21020;VA;;;;;;;4;0;10;32;No;No;No;No;No;No;No;No;No;Ristorante,Bar,Sala televisione separata,Accettazione animali domestici,Accettazione gruppi,Parcheggio custodito,Lavaggio e stiratura biancheria,Custodia valori in cassaforte,Spiaggia privata,Access. diversamente abili totale,Rifornimento benzina immediate vicinanze,Spaccio alimentari,Rifornimento gas liquido,Telefono per uso comune,Piazzole prevalentemente a prato,Animazione professionale,Area attrezzata gioco bimbi,Locale di ritrovo,Pista da ballo,Bigliardo,Lavapiedi,Camper service,Pizzeria;Visa,Master Card,Maestro,CartaSi;Inglese,Francese,Spagnolo;Piscina scoperta,Campo da calcio,Campo attrezzato per pallavolo, beach volley, pallacanestro, calcetto,Campo da bocce,Tennis da tavolo;;8.7597442;45.7703185
DAVERIO;VARESE;B&B A CASA LOMBARDO;Alloggi privati in affitto;Bed & Breakfast;383702262;VIA CAMPO DEI FIORI 8;21020;VA;;;;;;www.acasalombardo.com;3;0;5;3;No;No;No;No;No;No;No;Si;Si;Accettazione animali domestici,Parco o giardino,Posto auto;;Inglese,Francese,Tedesco;;;8.7810709;45.7718389
DUMENZA;VARESE;FATTORIA ROCCOLO;Complementari;Alloggi Agrituristici;197290794;LOCALITA' ROCCOLO 1;21010;VA;;;;;;www.fattoriaroccolo.com;4;0;8;7;No;No;No;No;No;No;No;Si;No;Access. diversamente abili totale,Accesso a vetture private,Accettazione animali domestici,Estintori;;Inglese;;;8.79825841;46.05887875
DUNO;VARESE;B&B DOLA;Alloggi privati in affitto;Bed & Breakfast;197290795;VIA ROMA 2;21030;VA;;;;;;www.doladuno.com;3;0;6;3;No;No;No;No;No;Si;No;No;No;Access. diversamente abili parziale,Accettazione animali domestici;;Inglese,Francese,Spagnolo;;;8.73752661;45.91420815
FAGNANO OLONA;VARESE;HOTEL CAMPO DEI FIORI;Alberghiere;Alberghi 3 stelle;197290797;VIA DANTE 215;21054;VA;;;info@hotelcampodeifiori.it;0331.617240;0331.612688;www.hotelcampodeifiori.it;17;0;25;17;No;Si;No;No;No;No;No;No;No;Ascensore,Ristorante,Bar,Sala lettura separata,Sala televisione separata,Parco o giardino,Accettazione animali domestici,Servizio congressi,Accettazione gruppi,Accesso a mezzi pubblici,Accesso a vetture private,Parcheggio custodito,Autorimessa,Trasporto clienti stazione,Custodia valori in cassette sicurezza,Aria condizionata centralizzata,Aria condizionata non centralizzata,Access. diversamente abili totale,Estintori,WI-FI in aree comuni;Visa,Master Card,Diners,Citibank,Bank Americard,Tutte,Maestro,Bancomat,Eurocard,CartaSi,JTB,JBC,JCB,AmexCo,Carta Moneta,Masterchange,BAC,Key Client,JCV,EDC,Carte Blanche,Top Card,MobilMat,Visa Electron;Inglese,Francese;;;8.85045718;45.6660931
FAGNANO OLONA;VARESE;HOTEL LA VILLA;Alberghiere;Alberghi 2 stelle;197290796;VIA DANTE 27;21054;VA;;;info@hotelcampodeifiori.it;0331.617328;0331.612688;www.hotelcampodeifiori.it;7;0;13;7;No;Si;No;No;No;No;No;No;No;Ristorante,Bar,Parco o giardino,Accettazione gruppi,Accesso a mezzi pubblici,Accesso a vetture private,Parcheggio custodito,Autorimessa,Trasporto clienti stazione,Custodia valori in cassaforte,Aria condizionata non centralizzata,Estintori,Access. diversamente abili parziale;Visa,Master Card,Diners,Citibank,Bank Americard,Tutte,Maestro,Bancomat,Eurocard,CartaSi,JTB,JBC,JCB,AmexCo,Carta Moneta,Masterchange,BAC,Key Client,JCV,EDC,Carte Blanche,Top Card,MobilMat,Visa Electron;Inglese,Francese;;;8.86194405;45.66768799
FAGNANO OLONA;VARESE;LA CORTE B&B;Alloggi privati in affitto;Bed & Breakfast;385424096;VIA FELICE CAVALLOTTI 6;21054;VA;;;;;;www.lacorteb-b.com;3;0;6;3;No;No;No;No;Si;Si;No;No;No;Posto auto;;Inglese;;;8.86807812;45.67847997
FAGNANO OLONA;VARESE;RESIDENCE ARRIGHETTI;Alberghiere;Residenze turistico alberghiere 3 stelle;304658483;VIA DANTE 209;21054;VA;;;info@hotelcampodeifiori.it;0331.610993;0331.612688;www.residencearrighetti.it;10;0;20;10;No;Si;No;No;Si;No;No;No;No;Access. diversamente abili totale,Accesso a mezzi pubblici,Accesso a vetture private,Accettazione animali domestici,Accettazione gruppi,Aria condizionata non centralizzata,Ascensore,Autorimessa,Bar,Custodia valori in cassaforte,Custodia valori in cassette sicurezza,Estintori,Lavaggio e stiratura biancheria,Parcheggio custodito,Parco o giardino,Pulizia calzature,Ristorante,Sala lettura separata,Tavernetta o tavola calda,Trasporto clienti stazione;Visa,Master Card,Diners,Citibank,Bank Americard,Maestro,Bancomat,Eurocard,CartaSi,JTB,JBC,JCB,AmexCo,Carta Moneta,Masterchange,BAC,Key Client,JCV,EDC,Carte Blanche,Top Card,MobilMat,Visa Electron;Inglese,Francese;;;8.85116446;45.66626048
FERNO;VARESE;B&B I FIORI DI MALPENSA;Alloggi privati in affitto;Bed & Breakfast;354457313;VIA DE GASPERI 7I;21010;VA;;Aeroporto intercontinentale della Malpensa;;;;www.ifioridimalpensa.it;4;0;11;4;No;No;No;No;Si;No;No;No;No;Access. diversamente abili parziale,Accesso a mezzi pubblici,Accettazione animali domestici,Accettazione gruppi,Aria condizionata,Autorimessa,Parco o giardino,Posto auto,Sala televisione separata;Tutte;Inglese;;;8.75846374;45.61984674
FERNO;VARESE;B&B IL GELSOMINO;Alloggi privati in affitto;Bed & Breakfast;344216288;VIA GIUSEPPE VERDI 9;21010;VA;;;;;;www.ilgelsomino.altervista.org;4;0;8;3;No;No;No;No;Si;Si;No;No;Si;Access. diversamente abili parziale,Accesso a mezzi pubblici,Aria condizionata,Parco o giardino,Posto auto,Sala televisione separata;Tutte;Inglese;;;8.75582085;45.61567337
FERNO;VARESE;SHERATON MILAN MALPENSA AIRPORT HOTEL & CONFERENCE CENTER;Alberghiere;Alberghi 4 stelle;315722453;AEROPORTO MALPENSA 2000 TERMINAL 1;21010;VA;;;milanmalpensa@sheraton.com;02.23351;02.23353535;www.sheratonmilanmalpensa.it;433;19;866;439;No;No;No;No;No;No;No;No;No;Ascensore,Ristorante,Ristorante vegetariano,Bar,Accettazione animali domestici,Servizio congressi,Accettazione gruppi,Accesso a mezzi pubblici,Accesso a vetture private,Trasporto clienti stazione,Lavaggio e stiratura biancheria,Pulizia calzature,Custodia valori in cassaforte,Custodia valori in cassette sicurezza,Sauna privata,Aria condizionata centralizzata,Access. diversamente abili totale,Riscaldamento,Parcheggio non custodito,Solarium,Internet point,Estintori,Servizio in camera,Salone di bellezza,Parrucchiere,WI-FI in aree comuni,Televisione satellitare,SKY,Piscina coperta,Fitness/centro salute;American express,Visa,Master Card,Diners,Maestro,Eurocard,JBC,JCB,AmexCo,JCV,Carte Blanche,Visa Electron;Inglese,Francese,Spagnolo,Tedesco;;Numero sale congressi 30,Congressi capacita' Min 8,Congressi capacita' Max 1000;8.70815626;45.62898673
GALLARATE;VARESE;54 CAT'S;Alloggi privati in affitto;Bed & Breakfast;384682036;VIA CARLO CATTANEO 54;21013;VA;;;;;;www.54cat.it;2;0;6;2;No;No;No;No;No;No;No;No;No;Accesso a mezzi pubblici,Accesso a vetture private;Visa,Master Card;Inglese,Francese,Spagnolo;;;8.80277377;45.65881996
GALLARATE;VARESE;ALBERGO BEL SIT;Alberghiere;Alberghi 1 stelle;197290801;VIA STRAGLIATI 11;21013;VA;;;albergobelsit@tiscali.it;0331.796049;;;10;0;11;2;No;Si;No;No;No;No;No;No;No;Accesso a vetture private,Estintori,Access. diversamente abili parziale;;Inglese,Francese,Spagnolo,Tedesco;;;8.79109977;45.65144803
GALLARATE;VARESE;AMALIA BAKERY HOME;Complementari;Case ed appartamenti per vacanze gestiti in forma imprenditoriale;355024904;VIA PASTORI 1;21013;VA;;;;;;www.amaliabakeryhome.com;7;0;14;1;No;No;No;No;No;No;No;No;No;Access. diversamente abili totale,Access. diversamente abili parziale,Servizio di pulizia e cambio biancheria assicurato almeno 3 volte alla settimana;Visa,Master Card;;;;8.79315649;45.65560105
GALLARATE;VARESE;B&B GLORIA;Alloggi privati in affitto;Bed & Breakfast;197290806;VIA ARCONTI 33;21013;VA;;;;;;;1;0;2;1;No;No;No;No;Si;Si;No;No;No;Access. diversamente abili parziale,Accesso a mezzi pubblici,Accesso a vetture private,Accettazione animali domestici,Autorimessa,Parco o giardino,Posto auto;;Inglese;;;8.80362709;45.66545562
GALLARATE;VARESE;B&B LA STRADA NEL BOSCO;Alloggi privati in affitto;Bed & Breakfast;320974740;VIA MARTIRI DI CEFALONIA 12;21013;VA;;;;;;"<p><a href=""http://stefaniabossi.wix.com/la-strada-nel-bosco"" target=""_blank""> http://stefaniabossi.wix.com/la-strada-nel-bosco";2;0;5;2;No;No;No;No;Si;Si;No;No;Si;Access. diversamente abili parziale,Accesso a mezzi pubblici,Accesso a vetture private,Autorimessa,Parco o giardino,Posto auto,Sala televisione separata;;Inglese,Francese;;;8.76893355;45.66092788
GALLARATE;VARESE;B&B LE MAGNOLIE;Alloggi privati in affitto;Bed & Breakfast;197290697;VIA SEGANTINI 2;21013;VA;;;;;;www.bblemagnolie.com;2;0;6;2;No;No;No;No;No;No;No;No;No;;;Inglese;;;8.79776322;45.67622412
GALLARATE;VARESE;B&B OMPHALOS;Alloggi privati in affitto;Bed & Breakfast;197290807;VIA TORINO 23;21013;VA;;;;;;www.bed-and-breakfast.it;2;0;4;2;No;No;No;No;No;No;No;No;No;Access. diversamente abili parziale,Accesso a mezzi pubblici,Accettazione animali domestici;;Inglese,Francese,Spagnolo;;;8.79548249;45.6518235
GALLARATE;VARESE;BEST WESTERN JET HOTEL;Alberghiere;Alberghi 4 stelle;197290802;VIA TIRO A SEGNO 22;21013;VA;;;jethotel@jethotel.com;0331.772100;0331.772686;www.jethotel.com;40;5;75;45;No;Si;No;No;No;No;No;No;Si;Ascensore,Bar,Sala televisione separata,Parco o giardino,Accettazione animali domestici,Servizio congressi,Accettazione gruppi,Accesso a mezzi pubblici,Accesso a vetture private,Parcheggio custodito,Trasporto clienti stazione,Lavaggio e stiratura biancheria,Pulizia calzature,Servizi baby sitting,Custodia valori in cassaforte,Custodia valori in cassette sicurezza,Aria condizionata centralizzata,Estintori,WI-FI in aree comuni,Access. diversamente abili parziale;American express,Visa,Master Card,Diners,Tutte,CartaSi,JCB;Inglese,Francese,Spagnolo,Tedesco;Piscina scoperta;Numero sale congressi 1,Congressi capacita' Min 1,Congressi capacita' Max 40;8.8033639;45.64990249
GALLARATE;VARESE;GRANDE ITALIA;Alberghiere;Alberghi 3 stelle;197290803;VIA ALBERTO DA GIUSSANO 5;21013;VA;;;info@hotelgrandeitalia.net;0331.739413;0331 701408;www.grandeitaliahotelgallarate.it;20;0;40;20;Si;No;No;No;Si;No;No;No;Si;Ristorante,Bar,Parco o giardino,Servizio congressi,Accesso a vetture private,Parcheggio custodito,Trasporto clienti stazione,Custodia valori in cassaforte,Aria condizionata centralizzata,Estintori,Access. diversamente abili parziale;Tutte;Inglese,Francese,Spagnolo;;;8.77894237;45.66847296
GALLARATE;VARESE;HOTEL ASTORIA;Alberghiere;Alberghi 3 stelle;197290800;PIAZZA RISORGIMENTO 9/A;21013;VA;;;astoriagallarate@gmail.com;0331.791043;0331.772671;www.astoria.ws;29;0;57;29;No;Si;No;No;No;Si;No;No;Si;Ascensore,Ristorante,Bar,Sala lettura separata,Sala televisione separata,Parco o giardino,Accettazione animali domestici,Servizio congressi,Accettazione gruppi,Accesso a mezzi pubblici,Accesso a vetture private,Parcheggio custodito,Autorimessa,Trasporto clienti stazione,Lavaggio e stiratura biancheria,Pulizia calzature,Custodia valori in cassaforte,Custodia valori in cassette sicurezza,Sauna privata,Aria condizionata centralizzata,Access. diversamente abili totale,Riscaldamento,Internet point,WI-FI in aree comuni,Access. diversamente abili parziale,Fitness/centro salute;American express,Visa,Master Card,Diners,CartaSi;Inglese,Francese,Spagnolo,Tedesco;;Numero sale congressi 1,Congressi capacita' Min 2,Congressi capacita' Max 50;8.79364423;45.66267945
GALLARATE;VARESE;HOTEL LA NUOVA ROTAIA;Alberghiere;Alberghi 3 stelle;197290799;VIA CESARE BECCARIA 6;21013;VA;;;info@lanuovarotaia.it;0331.796180;0331.796180;www.lanuovarotaia.it;20;0;34;22;Si;Si;No;No;No;No;No;No;Si;Ascensore,Ristorante,Bar,Accettazione animali domestici,Servizio congressi,Accettazione gruppi,Accesso a mezzi pubblici,Accesso a vetture private,Custodia valori in cassette sicurezza,Aria condizionata non centralizzata,Estintori,WI-FI in aree comuni,Access. diversamente abili parziale;Visa,Master Card,Tutte,Bancomat;Inglese,Francese,Spagnolo;;Numero sale congressi 1,Congressi capacita' Max 70;8.79753337;45.65977576
GALLARATE;VARESE;HOUSE RESIDENCE S.A.S.;Complementari;Case per ferie;355877866;VIA POSTCASTELLO 14;21013;VA;;;;;;;6;0;30;6;No;;;;;;;;;Access. diversamente abili parziale;;Inglese;;;8.795182;45.6599398
GALLARATE;VARESE;IL CORTILE;Alloggi privati in affitto;Bed & Breakfast;352736759;VIA CAVALLOTTI 17;21013;VA;;;;;;;2;0;3;2;No;No;No;No;Si;Si;No;No;Si;Access. diversamente abili parziale,Accesso a mezzi pubblici,Accesso a vetture private,Aria condizionata,Parco o giardino,Posto auto,Servizio di pulizia e cambio biancheria assicurato almeno 3 volte alla settimana;;Inglese,Francese,Tedesco;;;8.78973315;45.66404018
GALLARATE;VARESE;IL GAGGINO RESORT;Complementari;Case ed appartamenti per vacanze gestiti in forma imprenditoriale;197290805;CORSO LEONARDO DA VINCI 26;21013;VA;;;;;;www.ilgagginoresort.com;16;0;37;16;No;No;No;No;No;No;No;No;No;Access. diversamente abili parziale,Accettazione animali domestici,Servizio di pulizia bagno assicurato almeno 1 volta al giorno,Servizio di pulizia e cambio biancheria assicurato almeno 3 volte alla settimana;American express,Visa,Master Card,Tutte,Maestro;;;;8.7890957;45.65222905
GALLARATE;VARESE;IL MELOGRANO;Alloggi privati in affitto;Bed & Breakfast;197290804;CORSO SEMPIONE 23;21013;VA;;;;;;www.bebmelograno.it;2;0;4;2;No;No;No;No;Si;Si;No;No;No;Access. diversamente abili parziale,Accesso a mezzi pubblici,Accesso a vetture private,Parco o giardino,Posto auto,Sala televisione separata;;Inglese,Francese;;;8.78479983;45.66282705
GALLARATE;VARESE;LA CASA DELLA NONNA;Alloggi privati in affitto;Bed & Breakfast;353546313;VIA FRANCESCO BARACCA 3;21013;VA;;;;;;www.lacasadellanonnaweb.it;3;0;6;2;No;No;No;No;Si;Si;No;No;Si;Access. diversamente abili parziale,Accesso a vetture private,Accettazione animali domestici,Parco o giardino,Posto auto;;Inglese,Francese;;;8.80425941;45.65797008
GALLARATE;VARESE;LA CORTE-RESORT SAS;Complementari;Alloggi iscritti REC gestiti in forma imprenditoriale;356410695;VIA NOVARA 28;21013;VA;;;;;;;19;0;44;19;No;No;No;No;No;No;No;No;No;Accettazione animali domestici,Frigorifero,Parcheggio privato;;Inglese,Francese;;;8.78365674;45.6552323
GALLARATE;VARESE;LA VILLETTA;Alloggi privati in affitto;Bed & Breakfast;308971070;VIA SEGANTINI 4;21013;VA;;;;;;;1;0;3;1;No;No;No;No;Si;Si;No;No;No;Access. diversamente abili totale,Accesso a mezzi pubblici,Accesso a vetture private,Autorimessa,Parco o giardino,Posto auto,Sala televisione separata;;Inglese,Francese;;;8.79734983;45.67631071
GALLARATE;VARESE;N 15;Alloggi privati in affitto;Bed & Breakfast;354377559;VIA GALILEO FERRARIS 15;21013;VA;;;;;;www.quindicibnb.it;3;0;6;3;No;No;No;No;Si;Si;No;No;Si;Access. diversamente abili parziale,Parco o giardino,Posto auto;Visa;Inglese;;;8.7887445;45.65524075
GALLARATE;VARESE;NONNA MARISA;Alloggi privati in affitto;Bed & Breakfast;301244451;VIA STELVIO 67;21013;VA;;GALLARATE;;;;;2;0;4;1;No;No;No;No;Si;Si;No;No;Si;Access. diversamente abili parziale,Accesso a mezzi pubblici,Accesso a vetture private,Parco o giardino,Posto auto;;Inglese,Francese,Spagnolo;;;8.78169168;45.65399993
GALLARATE;VARESE;"SADOCCO ADEMIO ""DA EMILIO""";Complementari;Alloggi iscritti REC gestiti in forma imprenditoriale;197290808;VIA PEGORARO 40;21013;VA;;;;;;www.bedroomsalloggiodaemilio.com;6;0;12;6;No;No;No;No;No;No;No;No;No;Access. diversamente abili parziale,Accesso a mezzi pubblici,Accesso a vetture private,Accettazione animali domestici,Cucina di uso comune,Parco o giardino;;Francese;;;8.79419524;45.67122053
GALLARATE;VARESE;VOLTA GUEST HOUSE;Alloggi privati in affitto;Bed & Breakfast;386806759;VIA A. VOLTA 6;21013;VA;;;;;;;1;0;2;1;No;No;No;No;Si;Si;No;No;Si;Accesso a mezzi pubblici,Accesso a vetture private;;Inglese,Francese;;;8.79117693;45.66322839
GAVIRATE;VARESE;ANTONIETTA'S B&B;Alloggi privati in affitto;Bed & Breakfast;388290409;VIA DE AMBROSIS 38;21026;VA;;;;;;www.antonietta-bb.it;2;0;4;0;No;No;No;No;No;No;No;No;No;Accesso a mezzi pubblici,Aria condizionata,Parco o giardino,Posto auto;;Inglese,Francese,Olandese;;;8.71529101;45.84071441
GAVIRATE;VARESE;ART&BREAKFAST;Alloggi privati in affitto;Bed & Breakfast;389070363;VIA GERLI ARIOLI 5;21026;VA;;;;;;www.bbartandbreakfast.com;2;0;3;2;No;No;No;No;No;Si;No;No;No;;;Inglese,Francese;;;8.71110095;45.84577195
GAVIRATE;VARESE;B&B IL NIDO AL LAGO;Alloggi privati in affitto;Bed & Breakfast;133549102;VIA PREIA 17;21026;VA;Groppello;;;;;www.ilnidoallago.it;2;0;6;2;No;No;No;No;Si;No;No;Si;No;Access. diversamente abili parziale,Accesso a mezzi pubblici,Accesso a vetture private,Accettazione animali domestici,Autorimessa,Parco o giardino,Posto auto;Visa,Bancomat;Inglese,Francese;;;8.75449676;45.82121131
GAVIRATE;VARESE;B&B I TIGLI;Alloggi privati in affitto;Bed & Breakfast;197290811;VIA STRETTI 14/BIS;21026;VA;;;;;;;2;0;4;2;No;No;No;No;No;No;No;Si;No;Access. diversamente abili parziale,Accesso a mezzi pubblici,Accesso a vetture private,Accettazione animali domestici,Parco o giardino,Posto auto,Sala televisione separata;;Inglese,Francese,Spagnolo,Tedesco;;;8.7534836;45.82105507
GAVIRATE;VARESE;B&B LA CASA ROSSA;Alloggi privati in affitto;Bed & Breakfast;383703327;VIA VIGNACCE 24;21026;VA;;;;;;www.lacasarossagavirate.it;4;0;9;1;No;No;No;No;No;No;No;Si;No;Access. diversamente abili totale,Accettazione animali domestici,Parco o giardino,Posto auto;;Inglese,Francese,Spagnolo,Tedesco;;;8.71294688;45.83948031
GAVIRATE;VARESE;LAKE AND CAKE DOLCELAGO B&B;Alloggi privati in affitto;Bed & Breakfast;384572990;VIA CAVOUR 33;21026;VA;;;;;;www.lakeandcake.com;3;0;6;2;No;No;No;No;No;Si;No;No;Si;Biciclette per ospiti,Giochi per bambini,Parco o giardino,Posto auto;;;;;8.72064539;45.84048604
GAVIRATE;VARESE;LE TRE ARTI;Alloggi privati in affitto;Bed & Breakfast;390946769;VIA DE AMBROSIS 3;21026;VA;;;;;;;3;0;7;3;No;No;No;No;No;No;No;No;No;Access. diversamente abili totale,Accesso a vetture private,Accettazione animali domestici,Accettazione gruppi,Parco o giardino,Servizio di pulizia e cambio biancheria assicurato almeno 3 volte alla settimana;;Inglese,Francese;;;8.71907554;45.84227032
GAVIRATE;VARESE;RESIDENCE LE ARCATE;Alberghiere;Residenze turistico alberghiere 2 stelle;197290810;VIA MARCONI 17;21026;VA;;;info@residencelearcate.it;0332.747800;;www.residencelearcate.it;70;0;210;76;No;No;Si;No;No;Si;No;No;Si;Ascensore,Bar,Sala televisione separata,Parco o giardino,Accettazione animali domestici,Servizio congressi,Accettazione gruppi,Accesso a mezzi pubblici,Accesso a vetture private,Parcheggio custodito,Trasporto clienti stazione,Lavaggio e stiratura biancheria,Pulizia calzature,Servizi baby sitting,Custodia valori in cassaforte,Custodia valori in cassette sicurezza,Aria condizionata centralizzata,Estintori,WI-FI in aree comuni,Access. diversamente abili parziale,Access. diversamente abili parziale,Accesso a mezzi pubblici,Accesso a vetture private,Accettazione gruppi,Ascensore,Parcheggio custodito,WI-FI in aree comuni;Tutte;Inglese,Francese,Spagnolo,Tedesco;Piscina scoperta;Numero sale congressi 1,Congressi capacita' Min 1,Congressi capacita' Max 40;8.71304302;45.842597
GAVIRATE;VARESE;SUNSET HOTEL;Alberghiere;Alberghi 4 stelle;197290644;VIA AL LIDO 7;21026;VA;;;info@sunsethotel.it;0332.731023;0332.744825;www.sunsethotel.it;52;0;103;58;No;No;Si;No;No;No;No;No;Si;Ascensore,Ristorante,Parco o giardino,Accettazione animali domestici,Servizio congressi,Accesso a mezzi pubblici,Accesso a vetture private,Autorimessa,Servizio in camera,Piscina scoperta,Access. diversamente abili parziale;American express,Visa,Master Card,Diners,Bancomat,AmexCo;Inglese,Francese,Spagnolo;;Numero sale congressi 1;8.71555546;45.83955266
GAZZADA SCHIANNO;VARESE;A CASA DI ALICE;Alloggi privati in affitto;Bed & Breakfast;197290657;VIA RAFFAELLO SANZIO 39;21100;VA;;;;;;www.acasadialice.eu;4;0;8;5;No;No;No;No;No;No;No;No;No;Accesso a vetture private;;Inglese,Francese;;;8.83175779;45.78029499
GAZZADA SCHIANNO;VARESE;DA SERAFINO;Complementari;Alloggi iscritti REC gestiti in forma imprenditoriale;301244640;PIAZZA S. BERNARDINO 1;21045;VA;;GAZZADA SCHIANNO;;;;;5;0;9;5;No;No;No;No;No;No;No;No;No;Access. diversamente abili parziale,Accesso a mezzi pubblici,Accesso a vetture private,Ascensore,Parco o giardino,Somministrazione alimenti,Somministrazione bevande,Somministrazione alcolici;;Inglese,Francese;;;8.82264135;45.7770213
GAZZADA SCHIANNO;VARESE;VILLA CAGNOLA;Complementari;Case per ferie;197290813;VIA GUIDO CAGNOLA 17/19;21045;VA;;;;;;www.villacagnola.it;68;0;119;68;No;;;;;;;;;Access. diversamente abili totale,Access. diversamente abili parziale;;Inglese,Francese,Tedesco;;;8.82174368;45.77890275
GEMONIO;VARESE;ALBERGO RISTORANTE LE ORTENSIE;Alberghiere;Alberghi 2 stelle;197290814;VIA PASUBIO 14;21036;VA;;;info@ristoranteleortensie.it;0332.601234;0332.601190;www.ristoranteleortensie.it;12;0;20;13;Si;Si;No;No;No;No;No;No;No;Ristorante,Bar,Sala televisione separata,Parco o giardino,Accettazione animali domestici,Accesso a vetture private,Parcheggio custodito,Lavaggio e stiratura biancheria,Custodia valori in cassaforte,Estintori,Access. diversamente abili parziale;Visa,Master Card,Diners,CartaSi,AmexCo;Inglese,Francese,Tedesco;;;8.67718229;45.88371355
GERENZANO;VARESE;HENRY'S HOUSE;Complementari;Alloggi iscritti REC gestiti in forma imprenditoriale;302944200;VIA STAZIONE 25;21040;VA;;;;;;;4;0;8;4;No;No;No;No;No;No;No;No;No;Accesso a mezzi pubblici,Accesso a vetture private,Parco o giardino,Somministrazione alimenti,Somministrazione bevande;;Inglese,Francese;;;9.00119873;45.64576578
GERENZANO;VARESE;HOTEL CONCORDE;Alberghiere;Alberghi 4 stelle;197290815;VIA CLERICI 97;21040;VA;;;info@hconcorde.com;02.9682317;02.9681002;www.hconcorde.com;44;1;71;47;No;Si;No;No;No;No;No;No;Si;Ascensore,Bar,Sala lettura separata,Sala televisione separata,Parco o giardino,Accettazione animali domestici,Servizio congressi,Accettazione gruppi,Accesso a mezzi pubblici,Accesso a vetture private,Parcheggio custodito,Autorimessa,Trasporto clienti stazione,Lavaggio e stiratura biancheria,Pulizia calzature,Custodia valori in cassaforte,Custodia valori in cassette sicurezza,Aria condizionata centralizzata,Access. diversamente abili totale,Internet point,Estintori,WI-FI in aree comuni;American express,Visa,Master Card,Diners,Eurocard,CartaSi;Inglese,Francese,Spagnolo,Tedesco;;Numero sale congressi 1,Congressi capacita' Min 2,Congressi capacita' Max 40;9.0066807;45.63894224
GERMIGNAGA;VARESE;IL GIARDINO DEL BOSSO;Alloggi privati in affitto;Bed & Breakfast;307875050;VIA DIAZ 14;21010;VA;;;;;;www.bbvarese.com;3;0;12;3;No;No;No;No;No;Si;No;No;Si;Access. diversamente abili parziale,Accesso a vetture private,Accettazione animali domestici,Parco o giardino,Posto auto,Sala televisione separata;;Francese;;;8.72492842;45.99333812
GOLASECCA;VARESE;B&B IL PONTE;Alloggi privati in affitto;Bed & Breakfast;197290614;VIALE EUROPA 7;21010;VA;;;;;;www.bbvarese.com;3;0;5;3;No;No;No;No;Si;No;No;Si;No;Access. diversamente abili totale,Aria condizionata,Parco o giardino;;Inglese,Francese,Spagnolo;;;8.66919004;45.69750655
GOLASECCA;VARESE;B&B LE BETULLE;Alloggi privati in affitto;Bed & Breakfast;197290817;VIA GIUSEPPE VERDI 16;21010;VA;;;;;;www.bbvarese.com;1;0;2;1;No;No;No;No;No;No;No;No;No;Access. diversamente abili totale,Access. diversamente abili parziale,Accettazione animali domestici,Autorimessa,Parco o giardino,Posto auto,Sala televisione separata;;Francese;;;8.66164215;45.69885579
GOLASECCA;VARESE;CAMPING TURIST IL GABBIANO S.R.L.;Complementari;Campeggi e aree attrezzate per camper e roulotte 2 stelle;197290816;VIALE EUROPA 81;21010;VA;;;camping.gabbiano@tiscali.it;0331.959131;;www.campingilgabbiano.com;121;0;374;72;No;No;Si;No;No;No;No;No;No;Bar,Sala televisione separata,Accettazione animali domestici,Parcheggio custodito,Lavaggio e stiratura biancheria,Ormeggio,Access. diversamente abili totale,Rifornimento benzina immediate vicinanze,Parcheggio non custodito,Rifornimento gas liquido,Telefono per uso comune,Piazzole prevalentemente a prato,Area attrezzata gioco bimbi,Locale di ritrovo,Estintori,Pista da ballo,Lavapiedi,Camper service;Visa,Master Card,Maestro,CartaSi;Inglese,Francese,Spagnolo,Tedesco,Olandese;Piscina scoperta,Campo da bocce,Tennis da tavolo;;8.65629881;45.71196069
GORLA MAGGIORE;VARESE;ALBERGO BAR RISTORANTE DINA;Alberghiere;Alberghi 1 stelle;197290819;VIALE EUROPA 33;21050;VA;;;ristorantedina@libero.it;0331.611007;0331.614121;;10;0;15;10;Si;Si;No;No;No;No;No;No;No;Ristorante,Bar,Parco o giardino,Accettazione animali domestici,Accesso a mezzi pubblici,Accesso a vetture private,Autorimessa,Lavaggio e stiratura biancheria,Custodia valori in cassaforte,Custodia valori in cassette sicurezza,Estintori;Visa,Master Card,CartaSi;;;;8.89666585;45.66694313
GORLA MINORE;VARESE;B&B CA' BETTI;Alloggi privati in affitto;Bed & Breakfast;307016526;VIA SILVIO PELLICO 5;21055;VA;;;;;;;3;0;5;3;No;No;No;No;Si;Si;No;No;No;Access. diversamente abili totale,Access. diversamente abili parziale,Accesso a mezzi pubblici,Accesso a vetture private,Parco o giardino,Posto auto;;Francese,Rumeno;;;8.90316541;45.64696288
GORLA MINORE;VARESE;BED & BREAKFAST MARGHERITA;Alloggi privati in affitto;Bed & Breakfast;383128209;VIA ARNO 18;21055;VA;;;;;;;3;0;6;3;No;No;No;No;Si;Si;No;No;Si;Accesso a mezzi pubblici,Autorimessa,Parco o giardino,Posto auto;;Inglese;;;8.89746531;45.63838299
GORNATE-OLONA;VARESE;B&B LA MADONNETTA;Alloggi privati in affitto;Bed & Breakfast;197290822;VIA MONTELLO 19;21040;VA;;;;;;www.lamadonnetta.it;2;0;5;2;No;No;No;No;No;No;No;No;No;Access. diversamente abili parziale,Accesso a vetture private,Accettazione animali domestici,Parco o giardino,Posto auto,Sala televisione separata;;Inglese;;;8.84943102;45.74169858
GORNATE-OLONA;VARESE;CASCINA MARTINA;Complementari;Alloggi Agrituristici;197290820;VIA CASCINA MARTINA;21040;VA;;;;;;www.cascinamartina.it;1;0;4;3;No;No;No;No;No;No;No;No;No;;;;;;8.85089976;45.74438369
GORNATE-OLONA;VARESE;SOL&VERDE;Complementari;Campeggi e aree attrezzate per camper e roulotte 1 stelle;333734600;VIA MONTELLO 17;21041;VA;;;info@soleverde.it;0331.820173;0331.855913;www.soleverde.it;355;0;2076;402;No;No;Si;No;No;No;No;No;No;Ristorante,Sala televisione separata,Accettazione animali domestici,Parcheggio custodito,Access. diversamente abili totale,Self service o Tavola calda,Parcheggio non custodito,Rifornimento gas liquido,Telefono per uso comune,Piazzole prevalentemente a prato,Area attrezzata gioco bimbi,Locale di ritrovo,Estintori,Pista da ballo,Camper service;Visa,Master Card,Tutte,Maestro,CartaSi;Inglese;Piscina scoperta,Campo attrezzato per pallavolo, beach volley, pallacanestro, calcetto,Campo da bocce,Campo da tennis,attività sportive varie,Tennis da tavolo;;8.84980138;45.74003987
GORNATE-OLONA;VARESE;VILLA ALBA TOSCANA;Alloggi privati in affitto;Bed & Breakfast;384156373;VIA VITTORIO VENETO 19;21040;VA;;;;;;www.villaalbatoscana.it;4;0;7;2;No;No;No;No;No;No;No;Si;Si;Accettazione animali domestici,Aria condizionata,Parco o giardino,Posto auto;;Inglese,Francese;;;8.86028972;45.741
GRANTOLA;VARESE;VALLE DEL LUINESE;Alloggi privati in affitto;Bed & Breakfast;303612319;VIA ENRICO FERMI 83/B;21030;VA;;;;;;www.valledelluinese.it;2;0;5;3;No;No;No;No;Si;Si;No;No;No;Access. diversamente abili totale,Access. diversamente abili parziale,Accesso a mezzi pubblici,Accesso a vetture private,Accettazione animali domestici,Autorimessa,Parco o giardino,Posto auto;;Inglese,Francese;;;8.77314886;45.94810908
GRANTOLA;VARESE;VILLA SARCHI;Alloggi privati in affitto;Bed & Breakfast;309813864;VIA SAN FRANCESCO 1;21030;VA;;;;;;www.villasarchilagomaggiore.it;3;0;5;5;No;No;No;No;No;Si;No;No;No;Access. diversamente abili parziale,Accesso a vetture private,Autorimessa,Parco o giardino,Posto auto;;Inglese,Francese,Spagnolo;;;8.77352866;45.9494731
INDUNO OLONA;VARESE;B&B LA CASETTA;Alloggi privati in affitto;Bed & Breakfast;354457658;VIA SOLARI 1;21056;VA;;;;;;www.bb-lacasetta.it;2;0;4;3;No;No;No;No;No;No;No;No;No;Access. diversamente abili parziale,Accesso a mezzi pubblici,Accesso a vetture private,Accettazione animali domestici,Parco o giardino;;Inglese,Francese,Tedesco,Olandese;;;8.83718666;45.84979554
INDUNO OLONA;VARESE;VILLA PORRO PIRELLI;Alberghiere;Alberghi 4 stelle;197290824;VIA EDOARDO TABACCHI 20;21056;VA;;;info@villaporropirelli.com;0332.840540;;www.villaporropirelli.com;64;21;143;64;No;Si;No;Si;No;No;No;No;Si;Ascensore,Ristorante,Ristorante vegetariano,Bar,Sala lettura separata,Sala televisione separata,Parco o giardino,Accettazione animali domestici,Servizio congressi,Accettazione gruppi,Accesso a mezzi pubblici,Accesso a vetture private,Autorimessa,Trasporto clienti stazione,Lavaggio e stiratura biancheria,Pulizia calzature,Servizi baby sitting,Custodia valori in cassaforte,Sauna privata,Aria condizionata centralizzata,Access. diversamente abili totale,Estintori,WI-FI in aree comuni;American express,Visa,Master Card,Diners,Maestro,Bancomat,JCB,AmexCo;Inglese,Francese,Spagnolo,Tedesco,Ceco;Piscina scoperta,Fitness/centro salute;;8.83525067;45.84918654
ISPRA;VARESE;B&B DEL LAGO;Alloggi privati in affitto;Bed & Breakfast;301054356;VIA TULLIO DEL GRANDE 79;21027;VA;;ISPRA;;;;;3;0;6;3;No;No;No;No;No;Si;No;No;No;Access. diversamente abili parziale,Accesso a mezzi pubblici,Accettazione animali domestici,Aria condizionata,Posto auto,Sala televisione separata;;Inglese,Francese;;;8.61185412;45.81372336
ISPRA;VARESE;FORESTERIA LOMBARDA TANA DELLA VOLPE;Complementari;Foresterie lombarde;302348463;VIA TANA DELLA VOLPE 412;21027;VA;;;tanadellavolpe412@gmail.com;0332.780519;;www.tanavolpe.it;3;0;4;3;No;No;No;No;No;No;No;No;No;Access. diversamente abili parziale,Accesso a vetture private,Accettazione animali domestici,Autorimessa,Bar,Parco o giardino,Posto auto,Accettazione animali domestici,Parco o giardino;Visa,Master Card,Maestro,Bancomat,CartaSi;Inglese,Francese,Spagnolo;;;8.61571105;45.82113972
ISPRA;VARESE;HOTEL EUROPA;Alberghiere;Alberghi 3 stelle;197290828;VIA AL PORTO 68;21027;VA;;;info@isprahoteleuropa.it;0332.780184;0332.782637;www.isprahoteleuropa.it;38;3;72;38;Si;Si;Si;No;No;No;No;No;No;Ascensore,Ristorante,Bar,Parco o giardino,Accettazione animali domestici,Servizio congressi,Accettazione gruppi,Accesso a mezzi pubblici,Accesso a vetture private,Trasporto clienti stazione,Custodia valori in cassette sicurezza,Estintori,Access. diversamente abili parziale;American express,Visa,Master Card,Tutte,Maestro;Inglese,Francese,Tedesco;;Numero sale congressi 1,Congressi capacita' Min 50,Congressi capacita' Max 100;8.6081198;45.8125777
ISPRA;VARESE;INTERNATIONAL CAMPING S.R.L.;Complementari;Campeggi e aree attrezzate per camper e roulotte 4 stelle;197290825;VIA CARDUCCI 943;21027;VA;;;info@internationalcampingispra.it;0332.780458;0332.784882;www.internationalcampingispra.it;165;0;516;42;No;No;Si;No;No;No;No;No;No;Ristorante,Bar,Accettazione animali domestici,Parcheggio custodito,Lavaggio e stiratura biancheria,Spiaggia privata,Ormeggio,Access. diversamente abili totale,Rimessaggio caravan,Rifornimento benzina immediate vicinanze,Spaccio alimentari,Telefono per uso comune,Piazzole prevalentemente a prato,Area attrezzata gioco bimbi,Noleggio natanti e/o imbarcazioni,Locale di ritrovo,Pista da ballo,Lavapiedi,Camper service;Visa,Master Card,Maestro,Bancomat,CartaSi,Carta Moneta;Inglese,Francese,Spagnolo,Tedesco;Piscina scoperta,Campo attrezzato per pallavolo, beach volley, pallacanestro, calcetto,Campo da bocce,Campo da tennis,attività sportive varie,Tennis da tavolo;;8.62823223;45.83242213
JERAGO CON ORAGO;VARESE;B&B LA MADONNINA;Alloggi privati in affitto;Bed & Breakfast;197290617;VIA MADONNINA 1;21040;VA;;;;;;;4;0;6;4;No;No;No;No;Si;No;No;Si;No;Autorimessa,Parco o giardino,Posto auto,Sala televisione separata;;Inglese,Francese,Tedesco,Olandese;;;8.79041817;45.70714993
